City,County,State,City Latitude,City Longitude,Closest Airport,Closest Airport ICAO,Distance to Airport KM,Distance to Airport Miles
New York,New York,NY,40.6943,-73.9249,John F Kennedy International Airport,KJFK,13.724377768392003,8.527933083199061
Los Angeles,Los Angeles,CA,34.1139,-118.4068,Los Angeles International Airport,KLAX,19.0590483675228,11.842743754985683
Chicago,Cook,IL,41.8373,-87.6862,Chicago Midway International Airport,KMDW,7.914873261068959,4.918074296078332
Miami,Miami-Dade,FL,25.7839,-80.2102,Miami International Airport,KMIA,8.116212132199513,5.04318047203937
Dallas,Dallas,TX,32.7936,-96.7662,Dallas Fort Worth International Airport,KDFW,27.864253059894224,17.314044360930147
Philadelphia,Philadelphia,PA,40.0077,-75.1339,Philadelphia International Airport,KPHL,17.650670687546597,10.967618425925654
Houston,Harris,TX,29.7863,-95.3889,George Bush Intercontinental Houston Airport,KIAH,22.4987040315395,13.980046722522538
Atlanta,Fulton,GA,33.7627,-84.4224,Hartsfield Jackson Atlanta International Airport,KATL,14.020505561462546,8.711938365332657
Washington,District of Columbia,DC,38.9047,-77.0163,Washington Dulles International Airport,KIAD,38.27667919761298,23.784026085035812
Boston,Suffolk,MA,42.3188,-71.0846,General Edward Lawrence Logan International Airport,KBOS,8.257103496867364,5.130726308372671
Phoenix,Maricopa,AZ,33.5722,-112.0891,Phoenix Sky Harbor International Airport,KPHX,16.91835265893775,10.51257709370734
Seattle,King,WA,47.6211,-122.3244,Boeing Field King County International Airport,KBFI,10.268400488616114,6.380488333691981
San Francisco,San Francisco,CA,37.7562,-122.443,San Francisco International Airport,KSFO,16.387506607798095,10.182724645895432
Detroit,Wayne,MI,42.3834,-83.1024,Cleveland Hopkins International Airport,KCLE,149.7384683717479,93.04317177831504
San Diego,San Diego,CA,32.8312,-117.1225,San Diego International Airport,KSAN,12.553906752296275,7.800636103362439
Minneapolis,Hennepin,MN,44.9635,-93.2678,Minneapolis-St Paul International/Wold-Chamberlain Airport,KMSP,9.759237420474689,6.064109067045262
Tampa,Hillsborough,FL,27.9942,-82.4451,Tampa International Airport,KTPA,8.897512348652224,5.5286579250968515
Denver,Denver,CO,39.7621,-104.8759,Denver International Airport,KDEN,20.567258250057574,12.779901939548175
Brooklyn,Kings,NY,40.6501,-73.9496,John F Kennedy International Airport,KJFK,14.447493249726323,8.977256217574345
Queens,Queens,NY,40.7498,-73.7976,John F Kennedy International Airport,KJFK,12.332535172667944,7.663082179282887
Riverside,Riverside,CA,33.9381,-117.3948,Ontario International Airport,KONT,23.091348206222133,14.348298744518095
Baltimore,Baltimore,MD,39.3051,-76.6144,Baltimore/Washington International Thurgood Marshall Airport,KBWI,15.150546160849666,9.41411304862255
Las Vegas,Clark,NV,36.2333,-115.2654,McCarran International Airport,KLAS,19.845466178741678,12.33140113404413
Portland,Multnomah,OR,45.5372,-122.65,Portland International Airport,KPDX,7.01290853462471,4.3576193916499975
San Antonio,Bexar,TX,29.4658,-98.5253,San Antonio International Airport,KSAT,9.265730044805817,5.757457796817045
St. Louis,St. Louis,MO,38.6358,-90.2451,St Louis Lambert International Airport,KSTL,16.586254929325655,10.306221128940997
Sacramento,Sacramento,CA,38.5667,-121.4683,Sacramento International Airport,KSMF,17.84384297646383,11.087650122896902
Orlando,Orange,FL,28.4772,-81.3369,Orlando International Airport,KMCO,5.974275170772406,3.712242531993055
San Jose,Santa Clara,CA,37.3019,-121.8486,Norman Y. Mineta San Jose International Airport,KSJC,9.802349838710697,6.090897882099473
Cleveland,Cuyahoga,OH,41.4767,-81.6804,Cleveland Hopkins International Airport,KCLE,15.862117615957109,9.856263057568409
Pittsburgh,Allegheny,PA,40.4396,-79.9762,Pittsburgh International Airport,KPIT,22.46996977103779,13.962192080593477
Austin,Travis,TX,30.3004,-97.7522,Austin Bergstrom International Airport,KAUS,14.183155687228687,8.813004469160115
Cincinnati,Hamilton,OH,39.1413,-84.5061,Cincinnati Northern Kentucky International Airport,KCVG,17.335515716949665,10.771790203659874
Kansas City,Jackson,MO,39.1239,-94.5541,Kansas City International Airport,KMCI,23.719236703285322,14.738450573404444
Manhattan,New York,NY,40.7834,-73.9662,Newark Liberty International Airport,KEWR,19.830507572714225,12.322106287066525
Indianapolis,Marion,IN,39.7771,-86.1458,Indianapolis International Airport,KIND,14.339711062289005,8.910283470427794
Columbus,Franklin,OH,39.9862,-82.985,John Glenn Columbus International Airport,KCMH,8.039114791889642,4.995274405174217
Charlotte,Mecklenburg,NC,35.208,-80.8304,Charlotte Douglas International Airport,KCLT,10.260534143499456,6.375600413387229
Virginia Beach,Virginia Beach,VA,36.7335,-76.0435,Norfolk International Airport,KORF,22.759234049758447,14.141932572579266
Bronx,Bronx,NY,40.8501,-73.8662,John F Kennedy International Airport,KJFK,24.51346676225452,15.231962258222206
Milwaukee,Milwaukee,WI,43.0642,-87.9673,General Mitchell International Airport,KMKE,14.223409835993724,8.838017237883223
Providence,Providence,RI,41.823,-71.4187,General Edward Lawrence Logan International Airport,KBOS,69.18719294019905,42.99092910188302
Jacksonville,Duval,FL,30.3322,-81.6749,Jacksonville International Airport,KJAX,18.04563966049085,11.213040770606792
Salt Lake City,Salt Lake,UT,40.7777,-111.9306,Salt Lake City International Airport,KSLC,4.164153890638847,2.587485300010929
Nashville,Davidson,TN,36.1715,-86.7843,Nashville International Airport,KBNA,10.866023730876405,6.751834204883149
Richmond,Richmond,VA,37.5295,-77.4756,Richmond International Airport,KRIC,14.012639335252574,8.707050518913094
Memphis,Shelby,TN,35.1046,-89.9773,Memphis International Airport,KMEM,6.916510916869345,4.297720688228205
Raleigh,Wake,NC,35.8325,-78.6435,Raleigh Durham International Airport,KRDU,13.912991552744101,8.645132256718465
New Orleans,Orleans,LA,30.0687,-89.9288,Louis Armstrong New Orleans International Airport,KMSY,32.779010894782346,20.36793333450398
Louisville,Jefferson,KY,38.1663,-85.6485,Louisville Muhammad Ali International Airport,KSDF,7.7020075558560555,4.785805677391345
Oklahoma City,Oklahoma,OK,35.4676,-97.5136,Tulsa International Airport,KTUL,167.55665492051534,104.11487973594653
Bridgeport,Fairfield,CT,41.1918,-73.1953,John F Kennedy International Airport,KJFK,78.5629165324233,48.81673372125171
Buffalo,Erie,NY,42.9016,-78.8487,Buffalo Niagara International Airport,KBUF,10.425783186460368,6.478281409510703
Fort Worth,Tarrant,TX,32.7811,-97.3473,Fort Worth Meacham International Airport,KFTW,4.528769644853409,2.814047028746137
Hartford,Hartford,CT,41.7661,-72.6834,Bradley International Airport,KBDL,19.214519726343063,11.93934917978146
Tucson,Pima,AZ,32.1545,-110.8782,Tucson International Airport / Morris Air National Guard Base,KTUS,7.144879836590068,4.439622557917774
Omaha,Douglas,NE,41.2627,-96.0522,Des Moines International Airport,KDSM,201.5402566167506,125.23131110225827
El Paso,El Paso,TX,31.8479,-106.4309,Albuquerque International Sunport,KABQ,355.35221637013325,220.80563310856934
Honolulu,Honolulu,HI,21.3294,-157.846,Daniel K Inouye International Airport,PHNL,8.161604172885223,5.071385778830699
McAllen,Hidalgo,TX,26.2273,-98.2471,Corpus Christi International Airport,KCRP,186.82144257099708,116.08546395607154
Albuquerque,Bernalillo,NM,35.1053,-106.6464,Albuquerque International Sunport,KABQ,7.999096267274091,4.970408046511623
Birmingham,Jefferson,AL,33.5277,-86.7987,Birmingham-Shuttlesworth International Airport,KBHM,5.732893624811279,3.562254991121334
Sarasota,Sarasota,FL,27.3386,-82.5431,Sarasota Bradenton International Airport,KSRQ,6.41355846078915,3.985200517050707
Dayton,Montgomery,OH,39.7797,-84.1998,James M Cox Dayton International Airport,KDAY,13.745970821712717,8.541350384652617
Rochester,Monroe,NY,43.168,-77.6162,Greater Rochester International Airport,KROC,7.113320787569152,4.420012673756789
Fresno,Fresno,CA,36.7831,-119.7941,Norman Y. Mineta San Jose International Airport,KSJC,200.06182570212655,124.31265671072123
Allentown,Lehigh,PA,40.5961,-75.4756,Philadelphia International Airport,KPHL,82.951505633372,51.54367659721512
Tulsa,Tulsa,OK,36.1284,-95.9042,Tulsa International Airport,KTUL,7.916560919595453,4.91912295848213
Cape Coral,Lee,FL,26.6446,-81.9956,Southwest Florida International Airport,KRSW,26.77069866719887,16.634541155675763
Concord,Contra Costa,CA,37.9722,-122.0016,Metropolitan Oakland International Airport,KOAK,33.904037666664415,21.066992569780467
Colorado Springs,El Paso,CO,38.8674,-104.7606,Denver International Airport,KDEN,110.8172643648042,68.85865653907562
Charleston,Charleston,SC,32.8153,-79.9628,Charleston Air Force Base-International Airport,KCHS,11.767252050385192,7.311831527250307
Springfield,Hampden,MA,42.1155,-72.5395,Bradley International Airport,KBDL,22.945397462023024,14.257609155454201
Grand Rapids,Kent,MI,42.962,-85.6562,MBS International Airport,KMBS,142.60187398001239,88.60869755720907
Mission Viejo,Orange,CA,33.6095,-117.655,Ontario International Airport,KONT,49.89851235527315,31.0054985004109
Albany,Albany,NY,42.6664,-73.7987,Bradley International Airport,KBDL,122.30867264150764,75.99908668966077
Knoxville,Knox,TN,35.9692,-83.9496,Greenville Spartanburg International Airport,KGSP,197.06306254655678,122.44931165022905
Bakersfield,Kern,CA,35.3529,-119.0359,Los Angeles International Airport,KLAX,167.01557748305993,103.77866979934193
Ogden,Weber,UT,41.2278,-111.9682,Salt Lake City International Airport,KSLC,48.86618233948649,30.36403835970553
Baton Rouge,East Baton Rouge,LA,30.4418,-91.131,Louis Armstrong New Orleans International Airport,KMSY,97.58178261008383,60.63450935856692
Akron,Summit,OH,41.0798,-81.5219,Cleveland Hopkins International Airport,KCLE,45.97374985292669,28.56676411461288
New Haven,New Haven,CT,41.3112,-72.9246,Bradley International Airport,KBDL,72.62398647753079,45.126453626327084
Columbia,Richland,SC,34.0376,-80.9037,Charlotte Douglas International Airport,KCLT,130.85965941035442,81.31242359940322
Mesa,Maricopa,AZ,33.4017,-111.718,Phoenix Sky Harbor International Airport,KPHX,27.52646148071605,17.10415040202631
Palm Bay,Brevard,FL,27.955,-80.6627,Orlando International Airport,KMCO,82.42886256315403,51.218921245502095
Provo,Utah,UT,40.2457,-111.6457,Salt Lake City International Airport,KSLC,66.56262555449473,41.36009851594706
Worcester,Worcester,MA,42.2705,-71.8079,General Edward Lawrence Logan International Airport,KBOS,66.81704012189034,41.51818440098715
Murrieta,Riverside,CA,33.572,-117.1909,Ontario International Airport,KONT,65.81683070858529,40.89668307759049
Greenville,Greenville,SC,34.8353,-82.3647,Greenville Spartanburg International Airport,KGSP,14.90114484937736,9.25914225643143
Wichita,Sedgwick,KS,37.6896,-97.3442,Tulsa International Airport,KTUL,210.32522522597623,130.69003758893513
Toledo,Lucas,OH,41.6639,-83.5822,Cleveland Hopkins International Airport,KCLE,146.88934984888164,91.2728115828194
Staten Island,Richmond,NY,40.5834,-74.1496,Newark Liberty International Airport,KEWR,12.23810099711784,7.604403502300309
Des Moines,Polk,IA,41.5725,-93.6105,Des Moines International Airport,KDSM,6.122508436310767,3.804350414080545
Long Beach,Los Angeles,CA,33.7981,-118.1675,Los Angeles International Airport,KLAX,27.401340046493676,17.026403546297832
Port St. Lucie,St. Lucie,FL,27.2796,-80.3883,Palm Beach International Airport,KPBI,72.3819844691955,44.97608054800537
Denton,Denton,TX,33.2176,-97.1419,Dallas Fort Worth International Airport,KDFW,36.9620979148126,22.967183135844603
Madison,Dane,WI,43.0826,-89.3931,Chicago Rockford International Airport,KRFD,101.57797498657726,63.1176282109795
Reno,Washoe,NV,39.5497,-119.8483,Reno Tahoe International Airport,KRNO,8.89361479295171,5.526236096234157
Harrisburg,Dauphin,PA,40.2752,-76.8843,Baltimore/Washington International Thurgood Marshall Airport,KBWI,123.679605135968,76.8509446588626
Little Rock,Pulaski,AR,34.7256,-92.3576,Memphis International Airport,KMEM,220.00564787243133,136.7051734252701
Oakland,Alameda,CA,37.7903,-122.2165,Metropolitan Oakland International Airport,KOAK,7.682881251675752,4.773921142811265
Durham,Durham,NC,35.9794,-78.9031,Raleigh Durham International Airport,KRDU,15.37769204620836,9.555254959982944
Winston-Salem,Forsyth,NC,36.1029,-80.2611,Piedmont Triad International Airport,KGSO,29.09688815765633,18.079968310788704
Bonita Springs,Lee,FL,26.3559,-81.7861,Southwest Florida International Airport,KRSW,20.28303645441679,12.603294701324707
Indio,Riverside,CA,33.7346,-116.2346,Ontario International Airport,KONT,131.08090801612477,81.44990111106907
Palm Coast,Flagler,FL,29.5392,-81.246,Daytona Beach International Airport,KDAB,43.90685481216876,27.28245506286308
Chattanooga,Hamilton,TN,35.0657,-85.2488,Huntsville International Carl T Jones Field,KHSV,147.19878573247456,91.4650861291306
Spokane,Spokane,WA,47.6671,-117.433,Spokane International Airport,KGEG,9.208449050229246,5.721865036479807
Syracuse,Onondaga,NY,43.0409,-76.1438,Syracuse Hancock International Airport,KSYR,8.389274500375237,5.2128535634275615
Lancaster,Lancaster,PA,40.0421,-76.3012,Philadelphia International Airport,KPHL,92.31698577764408,57.36311623303764
Arlington,Tarrant,TX,32.6998,-97.125,Dallas Fort Worth International Airport,KDFW,23.366119089257154,14.519033457834626
Stockton,San Joaquin,CA,37.9765,-121.3109,Sacramento International Airport,KSMF,83.58795340953299,51.93914691562561
Poughkeepsie,Dutchess,NY,41.6949,-73.921,Bradley International Airport,KBDL,106.104821974057,65.93048055580617
Augusta,Richmond,GA,33.3645,-82.0708,Savannah Hilton Head International Airport,KSAV,159.73841183859946,99.25684865024475
Boise,Ada,ID,43.6007,-116.2312,Spokane International Airport,KGEG,458.24124437621504,284.737911907542
Oxnard,Ventura,CA,34.1963,-119.1815,Los Angeles International Airport,KLAX,76.63241870375387,47.61717796885399
Scranton,Lackawanna,PA,41.4044,-75.6649,Newark Liberty International Airport,KEWR,148.34956433308426,92.18014680912577
Modesto,Stanislaus,CA,37.6374,-121.0028,Norman Y. Mineta San Jose International Airport,KSJC,87.23302228247555,54.20408773528857
Kissimmee,Osceola,FL,28.3042,-81.4164,Orlando International Airport,KMCO,17.442466088129457,10.838246084140307
Aurora,Adams,CO,39.7087,-104.7273,Denver International Airport,KDEN,17.63407721955523,10.957307722807696
Youngstown,Mahoning,OH,41.0993,-80.6463,Pittsburgh International Airport,KPIT,76.01724987337381,47.234929774518136
Fayetteville,Washington,AR,36.0713,-94.166,Tulsa International Airport,KTUL,155.29487163817993,96.49576074366183
Anaheim,Orange,CA,33.839,-117.8572,Ontario International Airport,KONT,33.77453884942837,20.986525734315926
Pensacola,Escambia,FL,30.4427,-87.1886,Gulfport Biloxi International Airport,KGPT,180.44410787555182,112.12277184356108
Victorville,San Bernardino,CA,34.5277,-117.3536,Ontario International Airport,KONT,57.163126092490344,35.51952025584204
Lancaster,Los Angeles,CA,34.6935,-118.1753,Los Angeles International Airport,KLAX,86.19843775261448,53.561226704467366
Greensboro,Guilford,NC,36.0956,-79.8269,Piedmont Triad International Airport,KGSO,9.922417322057226,6.165504358307485
Corpus Christi,Nueces,TX,27.726,-97.3755,Corpus Christi International Airport,KCRP,13.318484856450015,8.275722917434173
Fort Wayne,Allen,IN,41.0886,-85.1437,Fort Wayne International Airport,KFWA,12.979452337973612,8.065057874589469
Santa Ana,Orange,CA,33.7366,-117.8819,Ontario International Airport,KONT,43.97207495465487,27.322980981063843
Flint,Genesee,MI,43.0235,-83.6922,MBS International Airport,KMBS,64.7451316312937,40.230760135894926
San Juan,San Juan,PR,18.4037,-66.0636,Miami International Airport,KMIA,1678.5627090892447,1043.010524822035
Fayetteville,Cumberland,NC,35.0846,-78.9776,Raleigh Durham International Airport,KRDU,89.84219774495021,55.82535422341701
Jackson,Hinds,MS,32.3163,-90.2124,Jackson-Medgar Wiley Evers International Airport,KJAN,12.840341784459511,7.978618583019748
Santa Rosa,Sonoma,CA,38.4458,-122.7067,Metropolitan Oakland International Airport,KOAK,91.08842165743957,56.599721871389214
Lansing,Ingham,MI,42.7142,-84.5601,MBS International Airport,KMBS,99.03620433896533,61.538245133548095
Ann Arbor,Washtenaw,MI,42.2755,-83.7312,MBS International Airport,KMBS,142.66708845510328,88.64921995385367
Henderson,Clark,NV,36.0133,-115.038,McCarran International Airport,KLAS,12.657864712996759,7.865232586152452
Huntsville,Madison,AL,34.6988,-86.6412,Huntsville International Carl T Jones Field,KHSV,14.031242618782583,8.718610063524077
Lexington,Fayette,KY,38.0423,-84.4587,Louisville Muhammad Ali International Airport,KSDF,112.71547686813969,70.0381511201282
Mobile,Mobile,AL,30.6783,-88.1162,Gulfport Biloxi International Airport,KGPT,96.19310821465325,59.77162708306895
Fort Collins,Larimer,CO,40.5478,-105.0656,Denver International Airport,KDEN,83.25840711785806,51.734376340912
Asheville,Buncombe,NC,35.5704,-82.5536,Greenville Spartanburg International Airport,KGSP,80.94813586825597,50.29884032222126
Santa Clarita,Los Angeles,CA,34.4175,-118.4964,Los Angeles International Airport,KLAX,53.43992153604721,33.206028172759495
St. Paul,Ramsey,MN,44.9477,-93.104,Minneapolis-St Paul International/Wold-Chamberlain Airport,KMSP,11.807519278635963,7.336852423189163
Antioch,Contra Costa,CA,37.9789,-121.7958,Metropolitan Oakland International Airport,KOAK,47.055883852717244,29.239171016623537
Lakeland,Polk,FL,28.0556,-81.9545,Tampa International Airport,KTPA,57.50247083387773,35.73037930501161
Trenton,Mercer,NJ,40.2236,-74.7641,Philadelphia International Airport,KPHL,56.37306406757555,35.0285984673463
Lincoln,Lancaster,NE,40.809,-96.6788,Kansas City International Airport,KMCI,237.08102227220198,147.31531930650488
Springfield,Greene,MO,37.1943,-93.2916,Tulsa International Airport,KTUL,256.6080618079312,159.4488592952684
Plano,Collin,TX,33.0502,-96.7487,Dallas Fort Worth International Airport,KDFW,31.92584650299188,19.83780155257987
Irvine,Orange,CA,33.6772,-117.7738,Ontario International Airport,KONT,45.041118518499296,27.98725386318213
Davenport,Scott,IA,41.5563,-90.6052,Quad City International Airport,KMLI,14.487152426066082,9.001899287567593
Rockford,Winnebago,IL,42.2597,-89.0641,Chicago Rockford International Airport,KRFD,7.651597565385813,4.754482361120861
Newark,Essex,NJ,40.7245,-74.1725,Newark Liberty International Airport,KEWR,3.5725031277422095,2.21985055548893
South Bend,St. Joseph,IN,41.6767,-86.2696,Fort Wayne International Airport,KFWA,118.64694794546774,73.72379642121282
Shreveport,Caddo,LA,32.4656,-93.7956,Dallas Fort Worth International Airport,KDFW,307.21282585520413,190.8932022570392
Round Lake Beach,Lake,IL,42.379,-88.0811,Chicago O'Hare International Airport,KORD,46.832642108740345,29.100455026278517
Savannah,Chatham,GA,32.0281,-81.1784,Savannah Hilton Head International Airport,KSAV,11.287226046655123,7.01355719328135
Myrtle Beach,Horry,SC,33.7096,-78.8843,Charleston Air Force Base-International Airport,KCHS,140.27484870790803,87.16275107145127
Chula Vista,San Diego,CA,32.6281,-117.0145,San Diego International Airport,KSAN,20.18465794439125,12.542165128495926
Eugene,Lane,OR,44.0563,-123.1173,Portland International Airport,KPDX,175.24739904614847,108.89368664218414
Canton,Stark,OH,40.8075,-81.3677,Cleveland Hopkins International Airport,KCLE,78.39041322821643,48.709545136112716
Lubbock,Lubbock,TX,33.5659,-101.8878,Lubbock Preston Smith International Airport,KLBB,12.410979085270514,7.7118249673894415
Reading,Berks,PA,40.34,-75.9267,Philadelphia International Airport,KPHL,78.16109089098848,48.56705084024258
Winter Haven,Polk,FL,28.0118,-81.7017,Orlando International Airport,KMCO,60.30425298824767,37.47132604441104
Salem,Marion,OR,44.9231,-123.0246,Portland International Airport,KPDX,81.19521641849138,50.45236906021769
St. Petersburg,Pinellas,FL,27.7931,-82.6652,Tampa International Airport,KTPA,24.076230404966406,14.960276178210462
Lafayette,Lafayette,LA,30.2084,-92.0323,Louis Armstrong New Orleans International Airport,KMSY,172.35106176719952,107.09398607155889
Laredo,Webb,TX,27.5629,-99.4875,Corpus Christi International Airport,KCRP,196.96777015027638,122.39009969960142
Jersey City,Hudson,NJ,40.7161,-74.0682,Newark Liberty International Airport,KEWR,8.868875078019409,5.510863549879014
Concord,Cabarrus,NC,35.3933,-80.6366,Charlotte Douglas International Airport,KCLT,34.221277363048756,21.26411618061044
Columbus,Muscogee,GA,32.51,-84.8771,Hartsfield Jackson Atlanta International Airport,KATL,132.08393881626523,82.07315556298931
Chandler,Maricopa,AZ,33.2826,-111.8516,Phoenix Sky Harbor International Airport,KPHX,22.504814206853986,13.98384340948991
McKinney,Collin,TX,33.2015,-96.6669,Dallas Fort Worth International Airport,KDFW,48.4175771182896,30.08528799508415
Scottsdale,Maricopa,AZ,33.6872,-111.8651,Phoenix Sky Harbor International Airport,KPHX,31.242354770935314,19.4130994748418
Killeen,Bell,TX,31.0754,-97.7296,Austin Bergstrom International Airport,KAUS,98.11816230759752,60.96780025486664
Tallahassee,Leon,FL,30.4551,-84.2526,Jacksonville International Airport,KJAX,245.8186147563335,152.74460763348065
Peoria,Peoria,IL,40.752,-89.6153,General Wayne A. Downing Peoria International Airport,KPIA,11.770280986174448,7.313713620716401
Wilmington,New Hanover,NC,34.21,-77.8866,Raleigh Durham International Airport,KRDU,202.75404745499824,125.98552577196921
Montgomery,Montgomery,AL,32.3473,-86.2666,Birmingham-Shuttlesworth International Airport,KBHM,142.59833518526594,88.60649865207093
Gilbert,Maricopa,AZ,33.3101,-111.7463,Phoenix Sky Harbor International Airport,KPHX,28.275274086611198,17.569440989526505
Glendale,Maricopa,AZ,33.5791,-112.2311,Phoenix Sky Harbor International Airport,KPHX,25.921235644227902,16.106709297736664
North Las Vegas,Clark,NV,36.288,-115.0901,McCarran International Airport,KLAS,23.775509281392402,14.773416732789935
Anchorage,Anchorage,AK,61.1508,-149.1091,Ted Stevens Anchorage International Airport,PANC,47.63852022263219,29.60120447696123
Chesapeake,Chesapeake,VA,36.6778,-76.3024,Norfolk International Airport,KORF,25.73650115974321,15.99192060943103
Barnstable,Barnstable,MA,41.6722,-70.3599,General Edward Lawrence Logan International Airport,KBOS,93.6175129989218,58.171226393155635
Norfolk,Norfolk,VA,36.8945,-76.259,Norfolk International Airport,KORF,5.1398011902993925,3.193724433377762
Fremont,Alameda,CA,37.5265,-121.9852,Norman Y. Mineta San Jose International Airport,KSJC,18.888344636246387,11.73667337263798
Kennewick,Benton,WA,46.1978,-119.1732,Spokane International Airport,KGEG,201.26246355035042,125.05869849123751
Garland,Dallas,TX,32.91,-96.6305,Dallas Fort Worth International Airport,KDFW,38.07186011891138,23.656757408320107
Irving,Dallas,TX,32.8584,-96.9702,Dallas Fort Worth International Airport,KDFW,7.636976280631064,4.745397115867261
Visalia,Tulare,CA,36.3276,-119.3269,Norman Y. Mineta San Jose International Airport,KSJC,258.55776425721535,160.66034824582303
Atlantic City,Atlantic,NJ,39.3797,-74.4527,Philadelphia International Airport,KPHL,86.91695065142137,54.00768992661448
Nashua,Hillsborough,NH,42.7491,-71.491,General Edward Lawrence Logan International Airport,KBOS,58.429829902929384,36.30661352257911
Paradise,Clark,NV,36.0807,-115.1369,McCarran International Airport,KLAS,1.3586600263214699,0.8442322109474033
Hialeah,Miami-Dade,FL,25.8696,-80.3046,Miami International Airport,KMIA,8.610074390620559,5.350052256189166
York,York,PA,39.9651,-76.7315,Baltimore/Washington International Thurgood Marshall Airport,KBWI,87.97771447485279,54.66681801649665
Arlington,Arlington,VA,38.8786,-77.1011,Washington Dulles International Airport,KIAD,31.552545984860117,19.605843361667713
Evansville,Vanderburgh,IN,37.9881,-87.5341,Louisville Muhammad Ali International Airport,KSDF,158.73497779175452,98.63334363243585
Avondale,Maricopa,AZ,33.3858,-112.3236,Phoenix Sky Harbor International Airport,KPHX,29.421168568505973,18.281466818814838
Brownsville,Cameron,TX,25.998,-97.4565,Corpus Christi International Airport,KCRP,197.131939162728,122.4921095958713
Gulfport,Harrison,MS,30.4271,-89.0703,Gulfport Biloxi International Airport,KGPT,2.2016418360091317,1.3680368296111973
Appleton,Outagamie,WI,44.2779,-88.3891,Austin Straubel International Airport,KGRB,30.92112415585571,19.213496022073052
Bremerton,Kitsap,WA,47.5436,-122.7122,Boeing Field King County International Airport,KBFI,30.83050226704306,19.157186190275265
Hickory,Catawba,NC,35.7425,-81.323,Charlotte Douglas International Airport,KCLT,68.09437101938755,42.31188103356207
Tacoma,Pierce,WA,47.2431,-122.4531,Seattle Tacoma International Airport,KSEA,25.338958027962235,15.744898756584528
San Bernardino,San Bernardino,CA,34.1417,-117.2946,Ontario International Airport,KONT,29.778286051737098,18.503369337911142
College Station,Brazos,TX,30.5852,-96.296,George Bush Intercontinental Houston Airport,KIAH,113.42205550856252,70.4771987378221
Kalamazoo,Kalamazoo,MI,42.2749,-85.5882,Fort Wayne International Airport,KFWA,147.80922548581296,91.84439581119018
Thousand Oaks,Ventura,CA,34.1914,-118.8755,Los Angeles International Airport,KLAX,51.189537435267326,31.80770430359698
Roanoke,Roanoke,VA,37.2785,-79.958,Piedmont Triad International Airport,KGSO,131.30089217879078,81.58659293420584
Fontana,San Bernardino,CA,34.0968,-117.4599,Ontario International Airport,KONT,13.764537678755339,8.55288729489342
Moreno Valley,Riverside,CA,33.9244,-117.2045,Ontario International Airport,KONT,39.37539791847358,24.46673825507943
North Port,Sarasota,FL,27.0577,-82.1975,Sarasota Bradenton International Airport,KSRQ,51.52957008965358,32.018990802092155
Fargo,Cass,ND,46.8652,-96.8292,Duluth International Airport,KDLH,352.45981972483037,219.00838113420153
Green Bay,Brown,WI,44.515,-87.9896,Austin Straubel International Airport,KGRB,11.590514501144211,7.20201190419338
Amarillo,Potter,TX,35.1988,-101.8311,Rick Husband Amarillo International Airport,KAMA,11.594019805428664,7.204189999322975
Portland,Cumberland,ME,43.6773,-70.2715,Portland International Jetport,KPWM,4.605187958652451,2.861531168093424
Santa Barbara,Santa Barbara,CA,34.4285,-119.7202,Los Angeles International Airport,KLAX,132.2444948506116,82.17292045871835
Gainesville,Alachua,FL,29.6804,-82.3458,Jacksonville International Airport,KJAX,110.42255849734211,68.61339768056366
Olympia,Thurston,WA,47.0417,-122.8959,Seattle Tacoma International Airport,KSEA,63.35510202152627,39.36703576923821
Frisco,Collin,TX,33.1555,-96.8215,Dallas Fort Worth International Airport,KDFW,35.140915725522134,21.83555297346656
Yonkers,Westchester,NY,40.9466,-73.8674,John F Kennedy International Airport,KJFK,34.91857537254633,21.69739708152956
Norwich,New London,CT,41.5495,-72.0882,Bradley International Airport,KBDL,65.66289747994006,40.80103340258733
Spring Valley,Clark,NV,36.0987,-115.2619,McCarran International Airport,KLAS,10.089441636580554,6.269288457052023
Glendale,Los Angeles,CA,34.1818,-118.2468,Los Angeles International Airport,KLAX,30.47172156985661,18.934250197927685
Huntington Beach,Orange,CA,33.696,-118.0025,Los Angeles International Airport,KLAX,46.41703552663401,28.842209065627205
Deltona,Volusia,FL,28.905,-81.2137,Orlando Sanford International Airport,KSFB,14.354798220622726,8.919658196106209
Aurora,Kane,IL,41.7637,-88.2901,Chicago O'Hare International Airport,KORD,39.86006732163835,24.767897863727207
Tempe,Maricopa,AZ,33.3881,-111.9318,Phoenix Sky Harbor International Airport,KPHX,9.044674983779975,5.620100548281344
Overland Park,Johnson,KS,38.887,-94.687,Kansas City International Airport,KMCI,45.71568259848252,28.406408555038205
Grand Prairie,Dallas,TX,32.6872,-97.0209,Dallas Fort Worth International Airport,KDFW,23.361364916973997,14.516079352098034
Sunrise Manor,Clark,NV,36.1785,-115.049,McCarran International Airport,KLAS,14.327912371167912,8.90295210356745
Waco,McLennan,TX,31.5598,-97.1881,Fort Worth Meacham International Airport,KFTW,141.06264211292697,87.65226320487997
Salinas,Monterey,CA,36.6884,-121.6317,Norman Y. Mineta San Jose International Airport,KSJC,79.47756990456314,49.38507298468228
Waterbury,New Haven,CT,41.5583,-73.0361,Bradley International Airport,KBDL,51.46037496923019,31.975994947080526
Clarksville,Montgomery,TN,36.5695,-87.342,Nashville International Airport,KBNA,77.34844419897301,48.0620955900489
Cedar Rapids,Linn,IA,41.9665,-91.6782,Quad City International Airport,KMLI,112.96827419777306,70.19523210019928
Sioux Falls,Minnehaha,SD,43.5397,-96.732,Minneapolis-St Paul International/Wold-Chamberlain Airport,KMSP,317.05476133663194,197.0086975174566
Huntington,Cabell,WV,38.4109,-82.4344,Rickenbacker International Airport,KLCK,161.69896749176215,100.47508146911724
Ontario,San Bernardino,CA,34.0393,-117.6064,Ontario International Airport,KONT,1.9224756046614824,1.194570973439231
Hagerstown,Washington,MD,39.6401,-77.7217,Washington Dulles International Airport,KIAD,80.66091357624654,50.120368661968605
Erie,Erie,PA,42.1168,-80.0733,Erie International Tom Ridge Field,KERI,9.102890471384056,5.656273975672477
Vancouver,Clark,WA,45.6366,-122.5967,Portland International Airport,KPDX,5.3272778635271285,3.3102170387932883
Nampa,Canyon,ID,43.5845,-116.5631,Spokane International Airport,KGEG,455.0186019785926,282.73545473376043
Spartanburg,Spartanburg,SC,34.9437,-81.9257,Greenville Spartanburg International Airport,KGSP,27.260377093319196,16.93881322692826
Gastonia,Gaston,NC,35.2494,-81.1853,Charlotte Douglas International Airport,KCLT,22.347689452406332,13.886210612269066
Fort Lauderdale,Broward,FL,26.1412,-80.1464,Fort Lauderdale Hollywood International Airport,KFLL,7.65400547277218,4.755978565423017
Lorain,Lorain,OH,41.4409,-82.184,Cleveland Hopkins International Airport,KCLE,28.052390873873346,17.43094778016773
Murfreesboro,Rutherford,TN,35.8492,-86.4119,Nashville International Airport,KBNA,38.873829419926665,24.155078035255137
High Point,Guilford,NC,35.9907,-79.9938,Piedmont Triad International Airport,KGSO,12.9472148386475,8.045026420948204
Newport News,Newport News,VA,37.1051,-76.5185,Newport News Williamsburg International Airport,KPHF,3.7409393099047605,2.324511948122693
Rancho Cucamonga,San Bernardino,CA,34.1248,-117.5666,Ontario International Airport,KONT,8.280092795464254,5.145011196428978
Hemet,Riverside,CA,33.7341,-116.9969,Ontario International Airport,KONT,66.25744897112934,41.170470576129404
Santa Cruz,Santa Cruz,CA,36.9789,-122.0346,Norman Y. Mineta San Jose International Airport,KSJC,43.67923069363892,27.14101599118325
Danbury,Fairfield,CT,41.4016,-73.471,John F Kennedy International Airport,KJFK,88.55901485939359,55.02802133399923
Peoria,Maricopa,AZ,33.7844,-112.2989,Phoenix Sky Harbor International Airport,KPHX,47.13170276927832,29.286282707789795
Oceanside,San Diego,CA,33.2247,-117.3083,San Diego International Airport,KSAN,55.71155078711578,34.61755316645108
Elk Grove,Sacramento,CA,38.416,-121.3842,Sacramento International Airport,KSMF,35.89689755389496,22.305298309340778
Pembroke Pines,Broward,FL,26.0128,-80.3382,Fort Lauderdale Hollywood International Airport,KFLL,19.688991761789595,12.234172437813315
Vallejo,Solano,CA,38.1133,-122.2358,Metropolitan Oakland International Airport,KOAK,43.60802945084761,27.096773589508523
Garden Grove,Orange,CA,33.7787,-117.9601,Los Angeles International Airport,KLAX,45.19003975518066,28.079789230724316
Medford,Jackson,OR,42.3372,-122.8537,Portland International Airport,KPDX,362.12896797906546,225.01651138791348
Cary,Wake,NC,35.782,-78.8191,Raleigh Durham International Airport,KRDU,11.005572569167503,6.838545833990695
Marysville,Snohomish,WA,48.0809,-122.1561,Boeing Field King County International Airport,KBFI,62.21908411588962,38.66114695999127
Corona,Riverside,CA,33.8616,-117.5649,Ontario International Airport,KONT,21.871183060716177,13.590123263856885
Ocala,Marion,FL,29.178,-82.1511,Orlando Sanford International Airport,KSFB,99.39793860701653,61.76301638976819
Fredericksburg,Fredericksburg,VA,38.2992,-77.4872,Washington Dulles International Airport,KIAD,71.80602104442494,44.618193463599574
Gainesville,Hall,GA,34.2903,-83.8301,Hartsfield Jackson Atlanta International Airport,KATL,91.23287767379136,56.68948267961695
Bayamón,Bayamón,PR,18.3793,-66.1635,Miami International Airport,KMIA,1671.053024144615,1038.3442228763683
Enterprise,Clark,NV,36.0164,-115.2208,McCarran International Airport,KLAS,9.403757499015146,5.84322408167204
Manchester,Hillsborough,NH,42.9848,-71.4447,General Edward Lawrence Logan International Airport,KBOS,77.79099930852041,48.3370865895345
Champaign,Champaign,IL,40.1144,-88.2735,General Wayne A. Downing Peoria International Airport,KPIA,134.89290198644133,83.81856437879743
Alexandria,Alexandria,VA,38.8185,-77.0861,Washington Dulles International Airport,KIAD,34.933856144118735,21.706892112898434
Hayward,Alameda,CA,37.6328,-122.0772,Metropolitan Oakland International Airport,KOAK,16.031195551441854,9.961323217234087
Springfield,Sangamon,IL,39.771,-89.6538,General Wayne A. Downing Peoria International Airport,KPIA,99.37604887345398,61.74941473975675
Lakewood,Jefferson,CO,39.6977,-105.1168,Denver International Airport,KDEN,42.08143087225552,26.148189198810456
Lafayette,Tippecanoe,IN,40.399,-86.8594,Indianapolis International Airport,KIND,89.76655877894764,55.77835434834523
Frederick,Frederick,MD,39.4336,-77.4141,Washington Dulles International Airport,KIAD,54.504152158993556,33.86731043201642
Lake Charles,Calcasieu,LA,30.2012,-93.2122,George Bush Intercontinental Houston Airport,KIAH,206.25570383303284,128.16135419757623
Odessa,Ector,TX,31.8831,-102.3406,Lubbock Preston Smith International Airport,KLBB,203.81053170601336,126.64199465880357
Tuscaloosa,Tuscaloosa,AL,33.2348,-87.5267,Birmingham-Shuttlesworth International Airport,KBHM,80.51710162409587,50.0310080566864
Warner Robins,Houston,GA,32.597,-83.6529,Hartsfield Jackson Atlanta International Airport,KATL,136.29938716765656,84.69251376363135
Palmdale,Los Angeles,CA,34.5944,-118.1057,Ontario International Airport,KONT,75.71077146904753,47.044492920647826
Hollywood,Broward,FL,26.0294,-80.1679,Fort Lauderdale Hollywood International Airport,KFLL,5.037743804173227,3.1303089128916834
Midland,Midland,TX,32.0249,-102.1137,Lubbock Preston Smith International Airport,KLBB,184.2278809089798,114.47389943386987
Leesburg,Lake,FL,28.7657,-81.8996,Orlando Sanford International Airport,KSFB,64.54641694114254,40.10728455041807
Port Arthur,Jefferson,TX,29.8554,-93.9264,George Bush Intercontinental Houston Airport,KIAH,137.12262707017757,85.20405132974872
Muskegon,Muskegon,MI,43.2281,-86.2563,General Mitchell International Airport,KMKE,136.81402026239945,85.01229194727146
Macon,Bibb,GA,32.8065,-83.6974,Hartsfield Jackson Atlanta International Airport,KATL,114.63729773465995,71.23231525814293
Kansas City,Wyandotte,KS,39.1234,-94.7443,Kansas City International Airport,KMCI,19.546485789779933,12.145623330978506
Sunnyvale,Santa Clara,CA,37.3836,-122.0256,Norman Y. Mineta San Jose International Airport,KSJC,8.849820884541408,5.499023822812556
Pomona,Los Angeles,CA,34.0585,-117.7626,Ontario International Airport,KONT,14.889822552718021,9.25210690736946
Escondido,San Diego,CA,33.1347,-117.0722,San Diego International Airport,KSAN,45.93530215668401,28.54287382346133
Pasadena,Harris,TX,29.6583,-95.1499,George Bush Intercontinental Houston Airport,KIAH,40.695584573257676,25.28706422098661
New Bedford,Bristol,MA,41.6697,-70.9428,General Edward Lawrence Logan International Airport,KBOS,77.4079415174913,48.09906551025339
Fairfield,Solano,CA,38.2592,-122.0324,Sacramento International Airport,KSMF,61.87816552386264,38.44930996536116
Naperville,DuPage,IL,41.7483,-88.1657,Chicago O'Hare International Airport,KORD,33.50482988476757,20.818936351293885
Bellevue,King,WA,47.5951,-122.1535,Boeing Field King County International Airport,KBFI,13.287505576565712,8.256473285117329
Binghamton,Broome,NY,42.1014,-75.9093,Syracuse Hancock International Airport,KSYR,113.43617086222955,70.48596961206862
Elkhart,Elkhart,IN,41.6916,-85.9628,Fort Wayne International Airport,KFWA,101.95889983993683,63.354323944221356
Topeka,Shawnee,KS,39.0346,-95.6955,Kansas City International Airport,KMCI,89.5354316232631,55.63473859026494
Joliet,Will,IL,41.5189,-88.1499,Chicago Midway International Airport,KMDW,44.415952762659366,27.598793867276967
Beaumont,Jefferson,TX,30.0849,-94.1451,George Bush Intercontinental Houston Airport,KIAH,115.70119953303069,71.89339319527872
Paterson,Passaic,NJ,40.9147,-74.1624,Newark Liberty International Airport,KEWR,24.713124219574738,15.356023652066218
Merced,Merced,CA,37.3057,-120.4778,Norman Y. Mineta San Jose International Airport,KSJC,128.459040575348,79.82074819315268
Pueblo,Pueblo,CO,38.2705,-104.6112,Denver International Airport,KDEN,177.01384189574532,109.99130335536954
Tyler,Smith,TX,32.3184,-95.3062,Dallas Fort Worth International Airport,KDFW,174.49716813826427,108.42751476267505
Torrance,Los Angeles,CA,33.8346,-118.3417,Los Angeles International Airport,KLAX,13.468588124381997,8.36899276515299
Metairie,Jefferson,LA,29.9977,-90.178,Louis Armstrong New Orleans International Airport,KMSY,7.719297325979264,4.796549042600526
Yuma,Yuma,AZ,32.5992,-114.5488,San Diego International Airport,KSAN,247.68004396192208,153.90124613267227
Surprise,Maricopa,AZ,33.68,-112.4524,Phoenix Sky Harbor International Airport,KPHX,49.10959764651681,30.515289621133327
Columbia,Boone,MO,38.9478,-92.3256,St Louis Lambert International Airport,KSTL,170.7919457469778,106.1251962791345
Athens,Clarke,GA,33.9508,-83.3689,Hartsfield Jackson Atlanta International Airport,KATL,103.92291249193116,64.57470484260625
Roseville,Placer,CA,38.7703,-121.3196,Sacramento International Airport,KSMF,24.971359733836707,15.516483763445795
Thornton,Adams,CO,39.9197,-104.9438,Denver International Airport,KDEN,23.98732917409788,14.90503551370421
Miramar,Broward,FL,25.9773,-80.3351,Miami International Airport,KMIA,20.94944683911253,13.017382921755559
Pasadena,Los Angeles,CA,34.1597,-118.139,Los Angeles International Airport,KLAX,34.6044126686157,21.50218542519294
Mesquite,Dallas,TX,32.7623,-96.5889,Dallas Fort Worth International Airport,KDFW,44.54772753084311,27.680674913113023
Santa Maria,Santa Barbara,CA,34.9334,-120.4432,Los Angeles International Airport,KLAX,216.73113769769967,134.6704871085849
Olathe,Johnson,KS,38.8832,-94.8198,Kansas City International Airport,KMCI,46.97693158466596,29.19011235108179
Houma,Terrebonne,LA,29.5799,-90.7058,Louis Armstrong New Orleans International Airport,KMSY,63.09946612895996,39.20819098791121
Carolina,Carolina,PR,18.4054,-65.9792,Miami International Airport,KMIA,1686.0348492884411,1047.6534975441778
Carrollton,Dallas,TX,32.989,-96.8999,Dallas Fort Worth International Airport,KDFW,16.467674587255317,10.232538719492341
Grand Junction,Mesa,CO,39.0876,-108.5673,Denver International Airport,KDEN,345.1288354314102,214.45311862661788
Charleston,Kanawha,WV,38.3484,-81.6323,Rickenbacker International Airport,KLCK,197.61876576100977,122.79460962343755
Orange,Orange,CA,33.8038,-117.8218,Ontario International Airport,KONT,34.66155599946959,21.53769264525762
Fullerton,Orange,CA,33.8841,-117.9279,Ontario International Airport,KONT,35.69514692411434,22.179936278413237
Greeley,Weld,CO,40.4151,-104.7706,Denver International Airport,KDEN,62.09239854087126,38.582428192219425
Las Cruces,Doña Ana,NM,32.3265,-106.7892,Albuquerque International Sunport,KABQ,302.2101274816741,187.7846695654408
Panama City,Bay,FL,30.1995,-85.6004,Gulfport Biloxi International Airport,KGPT,333.88528757143155,207.4667018006055
Harlingen,Cameron,TX,26.1917,-97.6976,Corpus Christi International Airport,KCRP,176.61902932958867,109.74597819736171
West Valley City,Salt Lake,UT,40.6889,-112.0115,Salt Lake City International Airport,KSLC,11.41817564397671,7.094925501708581
Hampton,Hampton,VA,37.0551,-76.363,Newport News Williamsburg International Airport,KPHF,14.34819409516268,8.91555458274415
Warren,Macomb,MI,42.4934,-83.027,MBS International Airport,KMBS,143.81908557342248,89.36503778566022
Mauldin,Greenville,SC,34.7849,-82.3005,Greenville Spartanburg International Airport,KGSP,14.395971362979564,8.945242000980247
Bloomington,McLean,IL,40.4757,-88.9703,General Wayne A. Downing Peoria International Airport,KPIA,64.56488872109192,40.118762382491354
Coral Springs,Broward,FL,26.2702,-80.2591,Fort Lauderdale Hollywood International Airport,KFLL,24.40332652386864,15.163524286128085
Round Rock,Williamson,TX,30.5254,-97.666,Austin Bergstrom International Airport,KAUS,36.79636399496873,22.864200851190514
Yakima,Yakima,WA,46.5923,-120.5496,Seattle Tacoma International Airport,KSEA,163.89190368052724,101.83770886025363
Sterling Heights,Macomb,MI,42.5809,-83.0305,MBS International Airport,KMBS,135.9061748902146,84.44818297894251
Kent,King,WA,47.3887,-122.2129,Seattle Tacoma International Airport,KSEA,9.860829217314036,6.127235283757483
Burlington,Alamance,NC,36.0758,-79.4686,Piedmont Triad International Airport,KGSO,42.18829579178838,26.214591982098494
Bellingham,Whatcom,WA,48.7543,-122.4687,Boeing Field King County International Airport,KBFI,136.69693128542508,84.93953622914212
Santa Clara,Santa Clara,CA,37.3645,-121.968,Norman Y. Mineta San Jose International Airport,KSJC,3.4531348543448077,2.1456785482060585
Racine,Racine,WI,42.7274,-87.8135,General Mitchell International Airport,KMKE,25.362595673393667,15.75958650869143
Greenville,Pitt,NC,35.5956,-77.3768,Raleigh Durham International Airport,KRDU,131.13015450848195,81.48050146312085
Stamford,Fairfield,CT,41.1035,-73.5583,John F Kennedy International Airport,KJFK,54.79591902667824,34.04860596070989
Elizabeth,Union,NJ,40.6657,-74.1912,Newark Liberty International Airport,KEWR,3.5328308732223594,2.1951993590912253
Johnson City,Washington,TN,36.3406,-82.3803,Greenville Spartanburg International Airport,KGSP,161.32688663828205,100.24388114269328
Lynchburg,Lynchburg,VA,37.4003,-79.1909,Piedmont Triad International Airport,KGSO,159.36788722976593,99.02661532942433
Simi Valley,Ventura,CA,34.2663,-118.749,Los Angeles International Airport,KLAX,47.771250099245826,29.683678999668498
Fort Smith,Sebastian,AR,35.3493,-94.3695,Tulsa International Airport,KTUL,166.3808804111652,103.38428731814223
Kenosha,Kenosha,WI,42.5864,-87.8765,General Mitchell International Airport,KMKE,40.15281289323783,24.949801530846663
South Lyon,Oakland,MI,42.4614,-83.6526,MBS International Airport,KMBS,124.10276259186747,77.1138825150238
Boulder,Boulder,CO,40.0249,-105.2523,Denver International Airport,KDEN,52.61473632268965,32.69328184651326
Pearland,Brazoria,TX,29.5585,-95.3215,George Bush Intercontinental Houston Airport,KIAH,47.39690552208222,29.451072060542856
Berkeley,Alameda,CA,37.8723,-122.276,Metropolitan Oakland International Airport,KOAK,17.472264027421964,10.85676166543602
Richardson,Dallas,TX,32.9717,-96.7093,Dallas Fort Worth International Airport,KDFW,31.786713465910733,19.751348290369112
Redding,Shasta,CA,40.5698,-122.365,Sacramento International Airport,KSMF,218.70703212767464,135.89825100161175
Arvada,Jefferson,CO,39.8321,-105.1511,Denver International Airport,KDEN,40.948634320832376,25.444302046296798
St. George,Washington,UT,37.077,-113.577,McCarran International Airport,KLAS,179.06750743223017,111.26739197417378
Billings,Yellowstone,MT,45.7891,-108.5524,Billings Logan International Airport,KBIL,2.1929877899534644,1.3626594546287323
Yuba City,Sutter,CA,39.1357,-121.6381,Sacramento International Airport,KSMF,49.12844256219533,30.526999309002388
Rochester,Olmsted,MN,44.0151,-92.4778,Rochester International Airport,KRST,12.007995701101267,7.4614226983881355
East Los Angeles,Los Angeles,CA,34.0326,-118.1691,Los Angeles International Airport,KLAX,24.19736981702869,15.035548720050897
Leominster,Worcester,MA,42.5209,-71.7717,General Edward Lawrence Logan International Airport,KBOS,65.26199931418064,40.5519268282516
Kingsport,Sullivan,TN,36.5224,-82.5453,Greenville Spartanburg International Airport,KGSP,183.26583433483341,113.87611139963664
Duluth,St. Louis,MN,46.7756,-92.1392,Duluth International Airport,KDLH,8.474575853064623,5.265857367309788
Lehigh Acres,Lee,FL,26.612,-81.6388,Southwest Florida International Airport,KRSW,14.319478237701713,8.897711375934598
Rock Hill,York,SC,34.9416,-81.0244,Charlotte Douglas International Airport,KCLT,31.18003691592802,19.374376954494494
Gilroy,Santa Clara,CA,37.0047,-121.5855,Norman Y. Mineta San Jose International Airport,KSJC,50.09761368024131,31.12921432962796
Cambridge,Middlesex,MA,42.3759,-71.1185,General Edward Lawrence Logan International Airport,KBOS,9.39647857441657,5.838701167559513
Sugar Land,Fort Bend,TX,29.5935,-95.6357,George Bush Intercontinental Houston Airport,KIAH,51.92193579557827,32.26279555162142
Texas City,Galveston,TX,29.4128,-94.9658,George Bush Intercontinental Houston Airport,KIAH,73.1839346821308,45.474389314157236
Iowa City,Johnson,IA,41.6559,-91.5303,Quad City International Airport,KMLI,88.17878487964924,54.79175737520951
Saginaw,Saginaw,MI,43.4199,-83.9501,MBS International Airport,KMBS,16.34224026997674,10.154597447243772
Chico,Butte,CA,39.7575,-121.8152,Sacramento International Airport,KSMF,119.66866804783768,74.35866386728657
Dover,Kent,DE,39.161,-75.5203,Philadelphia International Airport,KPHL,82.59689995440945,51.32333484095135
Norman,Cleveland,OK,35.2335,-97.3471,Tulsa International Airport,KTUL,169.88412282534514,105.5611012609321
Clearwater,Pinellas,FL,27.9789,-82.7622,Tampa International Airport,KTPA,22.490715585117016,13.975082931982863
Coeur d'Alene,Kootenai,ID,47.7041,-116.7935,Spokane International Airport,KGEG,56.240523320536106,34.94624146430951
Ponce,Ponce,PR,18.012,-66.6198,Miami International Airport,KMIA,1652.8740534699818,1027.0483340535068
Seaside,Monterey,CA,36.6224,-121.8191,Norman Y. Mineta San Jose International Airport,KSJC,82.88310313168546,51.50117325265915
Independence,Jackson,MO,39.0871,-94.3501,Kansas City International Airport,KMCI,39.12549499442446,24.31145577527952
West Jordan,Salt Lake,UT,40.6024,-112.0008,Salt Lake City International Airport,KSLC,20.771305265568397,12.906690878432554
Abilene,Taylor,TX,32.4543,-99.7384,Fort Worth Meacham International Airport,KFTW,226.16008579869978,140.52936390484103
Bloomington,Monroe,IN,39.1637,-86.5257,Indianapolis International Airport,KIND,64.68266391905799,40.19194449858176
El Monte,Los Angeles,CA,34.0739,-118.0291,Los Angeles International Airport,KLAX,37.858251328831976,23.52402705809792
Carlsbad,San Diego,CA,33.1247,-117.2837,San Diego International Airport,KSAN,44.358849457459044,27.563311518000674
North Charleston,Charleston,SC,32.9066,-80.0722,Charleston Air Force Base-International Airport,KCHS,3.090512497192913,1.920355458995757
St. Cloud,Stearns,MN,45.5339,-94.1718,Minneapolis-St Paul International/Wold-Chamberlain Airport,KMSP,103.8898809531863,64.55417999573852
Temecula,Riverside,CA,33.4928,-117.1315,Ontario International Airport,KONT,76.19058452255848,47.342634933483595
Clovis,Fresno,CA,36.8278,-119.6831,Norman Y. Mineta San Jose International Airport,KSJC,207.8765268707791,129.16848695352826
Meridian,Ada,ID,43.6112,-116.3968,Spokane International Airport,KGEG,454.4236736139346,282.3657833818989
Brandon,Hillsborough,FL,27.9367,-82.3,Tampa International Airport,KTPA,23.307856357911948,14.482830674543377
Westminster,Adams,CO,39.8837,-105.0624,Denver International Airport,KDEN,33.321206158247556,20.704837855997674
Costa Mesa,Orange,CA,33.6667,-117.9135,Ontario International Airport,KONT,52.023731232487634,32.326048304408324
Monroe,Ouachita,LA,32.5183,-92.0774,Jackson-Medgar Wiley Evers International Airport,KJAN,189.28374278779052,117.61546639654074
Utica,Oneida,NY,43.0961,-75.226,Syracuse Hancock International Airport,KSYR,71.48712551165141,44.420040963725455
Pompano Beach,Broward,FL,26.2428,-80.1312,Fort Lauderdale Hollywood International Airport,KFLL,19.04680367744955,11.83513525722124
West Palm Beach,Palm Beach,FL,26.7468,-80.1316,Palm Beach International Airport,KPBI,7.9246668259188064,4.92415973522136
Waterloo,Black Hawk,IA,42.492,-92.3522,Des Moines International Airport,KDSM,151.90756991315703,94.39098900602228
Everett,Snohomish,WA,47.9525,-122.1669,Boeing Field King County International Airport,KBFI,48.05396881861599,29.859352269586
El Centro,Imperial,CA,32.7867,-115.5586,San Diego International Airport,KSAN,152.66311601698288,94.86046359521188
Santa Fe,Santa Fe,NM,35.6619,-105.9819,Albuquerque International Sunport,KABQ,89.51821543587684,55.62404094724932
Downey,Los Angeles,CA,33.9379,-118.1312,Los Angeles International Airport,KLAX,25.5395747281964,15.869556196349071
Lowell,Middlesex,MA,42.6389,-71.3217,General Edward Lawrence Logan International Airport,KBOS,40.069192903881245,24.897842477716175
Centennial,Arapahoe,CO,39.5926,-104.8674,Denver International Airport,KDEN,34.23083841161343,21.270057140830332
Elgin,Kane,IL,42.0385,-88.3229,Chicago O'Hare International Airport,KORD,35.18087801438707,21.860384388853312
Richmond,Contra Costa,CA,37.9477,-122.339,Metropolitan Oakland International Airport,KOAK,27.22417225614241,16.916316583805916
Broken Arrow,Tulsa,OK,36.0365,-95.7809,Tulsa International Airport,KTUL,20.415790533092956,12.68578426249661
Miami Gardens,Miami-Dade,FL,25.9433,-80.2426,Fort Lauderdale Hollywood International Airport,KFLL,16.953496787565964,10.534414643086008
The Woodlands,Montgomery,TX,30.1738,-95.5134,George Bush Intercontinental Houston Airport,KIAH,26.785086684017532,16.643481454951996
Bend,Deschutes,OR,44.0562,-121.3087,Portland International Airport,KPDX,198.43378685385582,123.30104025792461
Burlington,Chittenden,VT,44.4877,-73.2314,Portland International Jetport,KPWM,251.50042442915924,156.275120528056
Jurupa Valley,Riverside,CA,34.001,-117.4705,Ontario International Airport,KONT,13.491629548018917,8.383310042207972
Sandy Springs,Fulton,GA,33.9366,-84.3703,Hartsfield Jackson Atlanta International Airport,KATL,33.77252873618811,20.985276707839688
Gresham,Multnomah,OR,45.5023,-122.4413,Portland International Airport,KPDX,15.530914397004995,9.65046291596427
Lewisville,Denton,TX,33.0452,-96.9823,Dallas Fort Worth International Airport,KDFW,17.30005838618802,10.749758039495713
Hillsboro,Washington,OR,45.5272,-122.9361,Portland International Airport,KPDX,27.19735310610834,16.89965193636627
San Buenaventura,Ventura,CA,34.2741,-119.2314,Los Angeles International Airport,KLAX,84.29950259599845,52.38128308747867
Jacksonville,Onslow,NC,34.7288,-77.3941,Raleigh Durham International Airport,KRDU,179.73572811637987,111.6826050625487
Pottstown,Montgomery,PA,40.2507,-75.6444,Philadelphia International Airport,KPHL,54.334132603369945,33.761665176715105
Inglewood,Los Angeles,CA,33.9566,-118.3444,Los Angeles International Airport,KLAX,6.072041172604294,3.7729915098705376
Spring Hill,Hernando,FL,28.4797,-82.53,Tampa International Airport,KTPA,56.06543603570434,34.837447268028846
League City,Galveston,TX,29.4873,-95.1087,George Bush Intercontinental Houston Airport,KIAH,59.6668530272489,37.07526406576528
Eau Claire,Eau Claire,WI,44.8199,-91.4949,Rochester International Airport,KRST,129.0674273947544,80.19878224119141
Turlock,Stanislaus,CA,37.5053,-120.8588,Norman Y. Mineta San Jose International Airport,KSJC,95.81584222030561,59.537204859441964
Temple,Bell,TX,31.1076,-97.3894,Austin Bergstrom International Airport,KAUS,105.01784800507576,65.25506623633153
Sioux City,Woodbury,IA,42.4959,-96.3901,Des Moines International Airport,KDSM,249.37389965982294,154.95375928030379
Salisbury,Wicomico,MD,38.3756,-75.5867,Baltimore/Washington International Thurgood Marshall Airport,KBWI,129.22845224523266,80.29883844576291
Davie,Broward,FL,26.0789,-80.287,Fort Lauderdale Hollywood International Airport,KFLL,13.43156225958897,8.34598595911551
Daly City,San Mateo,CA,37.6862,-122.4685,San Francisco International Airport,KSFO,11.117206299203861,6.907911818783862
Allen,Collin,TX,33.1088,-96.6735,Dallas Fort Worth International Airport,KDFW,41.36517916867257,25.703131018253078
Highlands Ranch,Douglas,CO,39.5419,-104.9708,Denver International Airport,KDEN,43.74480222029182,27.18176024938539
West Covina,Los Angeles,CA,34.0555,-117.9112,Ontario International Airport,KONT,28.577216520152895,17.757059321787228
Sparks,Washoe,NV,39.5729,-119.7157,Reno Tahoe International Airport,KRNO,9.351800696656355,5.810939621042195
San Mateo,San Mateo,CA,37.5521,-122.3122,San Francisco International Airport,KSFO,9.271391085504094,5.760975404468981
Norwalk,Los Angeles,CA,33.9069,-118.0829,Los Angeles International Airport,KLAX,30.255660228248427,18.799995902819
Columbia,Howard,MD,39.2004,-76.859,Baltimore/Washington International Thurgood Marshall Airport,KBWI,16.669141591193288,10.357724513489682
Rialto,San Bernardino,CA,34.1174,-117.3894,Ontario International Airport,KONT,20.647647958878988,12.829853789386188
Manteca,San Joaquin,CA,37.7927,-121.2264,Norman Y. Mineta San Jose International Airport,KSJC,78.236058808226,48.613633744937964
El Cajon,San Diego,CA,32.8017,-116.9605,San Diego International Airport,KSAN,22.75553801355012,14.139635962125254
Burbank,Los Angeles,CA,34.1879,-118.3235,Los Angeles International Airport,KLAX,28.375517810527597,17.631729552548904
Longmont,Boulder,CO,40.1686,-105.1005,Denver International Airport,KDEN,49.90017874639423,31.00653394786148
Renton,King,WA,47.4784,-122.1919,Seattle Tacoma International Airport,KSEA,9.390153093279674,5.834770695754902
Vista,San Diego,CA,33.1896,-117.2386,San Diego International Airport,KSAN,50.90720418875814,31.632270555413676
Logan,Cache,UT,41.74,-111.8419,Salt Lake City International Airport,KSLC,106.42304176623153,66.1282131699334
Prescott Valley,Yavapai,AZ,34.5983,-112.3176,Phoenix Sky Harbor International Airport,KPHX,132.46016242938686,82.30693008094303
Vacaville,Solano,CA,38.359,-121.968,Sacramento International Airport,KSMF,49.746293421772954,30.910914039039167
Edinburg,Hidalgo,TX,26.3197,-98.1596,Corpus Christi International Airport,KCRP,173.98980274186985,108.11225251747896
Carmel,Hamilton,IN,39.965,-86.146,Indianapolis International Airport,KIND,30.31758801190104,18.838476044060563
Spokane Valley,Spokane,WA,47.6626,-117.2346,Spokane International Airport,KGEG,22.927791621404506,14.246669393142064
San Angelo,Tom Green,TX,31.4424,-100.4506,Lubbock Preston Smith International Airport,KLBB,278.4654145461177,173.0303887950186
La Crosse,La Crosse,WI,43.824,-91.2268,Rochester International Airport,KRST,102.49746919329093,63.688975429598216
Arden-Arcade,Sacramento,CA,38.6034,-121.381,Sacramento International Airport,KSMF,20.910281134094124,12.993046480629427
Idaho Falls,Bonneville,ID,43.4872,-112.0362,Salt Lake City International Airport,KSLC,300.13182643887,186.4932731525124
Holland,Ottawa,MI,42.7677,-86.0985,General Mitchell International Airport,KMKE,147.9153580188721,91.91034351061619
Charlottesville,Charlottesville,VA,38.0375,-78.4855,Richmond International Airport,KRIC,118.333300745141,73.52890508396916
Longview,Gregg,TX,32.5193,-94.7621,Dallas Fort Worth International Airport,KDFW,217.03423001494,134.8588199454593
Tracy,San Joaquin,CA,37.7269,-121.4522,Norman Y. Mineta San Jose International Airport,KSJC,58.378192488121314,36.27452752017493
Boca Raton,Palm Beach,FL,26.3752,-80.108,Fort Lauderdale Hollywood International Airport,KFLL,33.941919783238426,21.0905314260146
Lafayette,Boulder,CO,39.9949,-105.0997,Denver International Airport,KDEN,39.28402404019766,24.409961158686468
Wichita Falls,Wichita,TX,33.9072,-98.5291,Fort Worth Meacham International Airport,KFTW,162.35526274067715,100.88288443548986
Rio Rancho,Sandoval,NM,35.2872,-106.6981,Albuquerque International Sunport,KABQ,28.63463624996737,17.792738288205726
South Fulton,Fulton,GA,33.6269,-84.5802,Hartsfield Jackson Atlanta International Airport,KATL,14.123819462829031,8.776134648201431
Beaverton,Washington,OR,45.4779,-122.8168,Portland International Airport,KPDX,21.02960212455716,13.067189107658633
Lawrence,Douglas,KS,38.9597,-95.2641,Kansas City International Airport,KMCI,60.53140616775919,37.61247248814793
Bismarck,Burleigh,ND,46.8144,-100.7694,Billings Logan International Airport,KBIL,607.2035349856908,377.2987891783007
Orem,Utah,UT,40.2983,-111.6992,Salt Lake City International Airport,KSLC,59.37040009388427,36.891056750816986
Middletown,Butler,OH,39.5032,-84.366,James M Cox Dayton International Airport,KDAY,46.12693426604947,28.661948497216276
San Marcos,San Diego,CA,33.135,-117.1744,San Diego International Airport,KSAN,44.65738961045232,27.74881577111429
Sandy,Salt Lake,UT,40.571,-111.8505,Salt Lake City International Airport,KSLC,26.456716305518388,16.439441558819528
Federal Way,King,WA,47.3091,-122.3358,Seattle Tacoma International Airport,KSEA,15.686657326056075,9.747237086680254
Mandeville,St. Tammany,LA,30.3751,-90.0904,Louis Armstrong New Orleans International Airport,KMSY,45.3975773457595,28.208747112427396
Hesperia,San Bernardino,CA,34.3975,-117.3147,Ontario International Airport,KONT,46.20374900318713,28.70967896260919
Brockton,Plymouth,MA,42.0821,-71.0242,General Edward Lawrence Logan International Airport,KBOS,31.418196854721096,19.522362681454272
Compton,Los Angeles,CA,33.893,-118.2275,Los Angeles International Airport,KLAX,17.541162487847878,10.899573184469022
Fishers,Hamilton,IN,39.9589,-85.9661,Indianapolis International Airport,KIND,38.825972809590496,24.12534131586262
Sunrise,Broward,FL,26.1547,-80.2997,Fort Lauderdale Hollywood International Airport,KFLL,17.284554754787028,10.740124529447721
Bowling Green,Warren,KY,36.9719,-86.4373,Nashville International Airport,KBNA,96.65263976401145,60.057166753331515
Roswell,Fulton,GA,34.0391,-84.3513,Hartsfield Jackson Atlanta International Airport,KATL,45.30366818917888,28.150394667111907
Menifee,Riverside,CA,33.6909,-117.1849,Ontario International Airport,KONT,55.89132126606743,34.729257364681835
Plantation,Broward,FL,26.126,-80.2617,Fort Lauderdale Hollywood International Airport,KFLL,12.39857916539355,7.704120014295588
Dover,Strafford,NH,43.1887,-70.8845,Portland International Jetport,KPWM,68.89250561760679,42.807818886619074
Quincy,Norfolk,MA,42.2516,-71.0183,General Edward Lawrence Logan International Airport,KBOS,12.577855752514346,7.815517322366742
Portsmouth,Portsmouth,VA,36.8468,-76.354,Norfolk International Airport,KORF,14.594399255845552,9.068539378883857
Chino,San Bernardino,CA,33.9836,-117.6654,Ontario International Airport,KONT,10.002044308092696,6.214982274172728
Lynn,Essex,MA,42.4779,-70.9663,General Edward Lawrence Logan International Airport,KBOS,13.029187072044753,8.095961605980934
Edmond,Oklahoma,OK,35.6689,-97.4159,Tulsa International Airport,KTUL,149.6231582534122,92.97152139171266
Hanford,Kings,CA,36.3274,-119.6549,Norman Y. Mineta San Jose International Airport,KSJC,232.79847655259238,144.65426873365618
Dearborn,Wayne,MI,42.3127,-83.2129,Cleveland Hopkins International Airport,KCLE,150.9256978048898,93.78088195586174
Livonia,Wayne,MI,42.3972,-83.3733,MBS International Airport,KMBS,138.7452987940245,86.21233280600156
South Gate,Los Angeles,CA,33.9448,-118.1926,Los Angeles International Airport,KLAX,19.87115776495685,12.347365145800556
Vineland,Cumberland,NJ,39.4653,-74.9981,Philadelphia International Airport,KPHL,49.766281626692574,30.92333413391592
San Tan Valley,Pinal,AZ,33.1879,-111.5472,Phoenix Sky Harbor International Airport,KPHX,51.148948297444036,31.78248338232076
Florence,Florence,SC,34.1781,-79.7877,Charleston Air Force Base-International Airport,KCHS,144.19011586398136,89.59558532254114
Portsmouth,Rockingham,NH,43.058,-70.7826,Portland International Jetport,KPWM,75.777404814101,47.08589696222372
Slidell,St. Tammany,LA,30.2881,-89.7826,Louis Armstrong New Orleans International Airport,KMSY,56.246636387504246,34.95003994806718
Kirkland,King,WA,47.6974,-122.2054,Boeing Field King County International Airport,KBFI,19.973071954218494,12.41069168787909
Missoula,Missoula,MT,46.875,-114.0214,Spokane International Airport,KGEG,277.7483975429958,172.58485507936837
Auburn,Lee,AL,32.6087,-85.4899,Hartsfield Jackson Atlanta International Airport,KATL,151.13990064804605,93.91398143355715
Rapid City,Pennington,SD,44.0716,-103.2204,Billings Logan International Airport,KBIL,461.1513459148433,286.5461651927213
Lee's Summit,Jackson,MO,38.9172,-94.3816,Kansas City International Airport,KMCI,51.10026555427117,31.752233327776143
Terre Haute,Vigo,IN,39.4654,-87.3763,Indianapolis International Airport,KIND,96.8439087835862,60.1760158135475
Suffolk,Suffolk,VA,36.6953,-76.6398,Norfolk International Airport,KORF,44.90366220652171,27.90184246966104
Blacksburg,Montgomery,VA,37.23,-80.4279,Piedmont Triad International Airport,KGSO,133.28251904953495,82.8179188008324
Mount Pleasant,Charleston,SC,32.8538,-79.8204,Charleston Air Force Base-International Airport,KCHS,21.149205922914373,13.141507463368411
Carson,Los Angeles,CA,33.8374,-118.2559,Los Angeles International Airport,KLAX,18.266854719526222,11.350497437297673
Riverview,Hillsborough,FL,27.8227,-82.3023,Tampa International Airport,KTPA,28.34727721244394,17.614181658228947
Conroe,Montgomery,TX,30.3239,-95.4825,George Bush Intercontinental Houston Airport,KIAH,40.11442641336206,24.92594927778248
Livermore,Alameda,CA,37.6862,-121.7608,Norman Y. Mineta San Jose International Airport,KSJC,38.92042469504487,24.184030997269666
Germantown,Montgomery,MD,39.1755,-77.2643,Washington Dulles International Airport,KIAD,30.547794360800292,18.98151963932371
Lawton,Comanche,OK,34.6176,-98.4203,Fort Worth Meacham International Airport,KFTW,222.56285888638578,138.2941507016642
Westminster,Orange,CA,33.7523,-117.9938,Los Angeles International Airport,KLAX,43.708639191935276,27.159289585059852
Santa Monica,Los Angeles,CA,34.0232,-118.4813,Los Angeles International Airport,KLAX,11.233966460886148,6.980463220560579
New Braunfels,Comal,TX,29.6994,-98.1148,San Antonio International Airport,KSAT,38.95065983744881,24.202818243987373
Fall River,Bristol,MA,41.7137,-71.1014,General Edward Lawrence Logan International Airport,KBOS,72.77837511939822,45.222386281990616
Albany,Dougherty,GA,31.5776,-84.1762,Hartsfield Jackson Atlanta International Airport,KATL,230.17412374430583,143.0235714799478
Miami Beach,Miami-Dade,FL,25.8171,-80.1396,Miami International Airport,KMIA,15.348311641892401,9.536998822896653
Norwalk,Fairfield,CT,41.1144,-73.4215,John F Kennedy International Airport,KJFK,60.72820425535894,37.73475715199749
San Leandro,Alameda,CA,37.7071,-122.1601,Metropolitan Oakland International Airport,KOAK,5.584843553215477,3.470260940473765
O'Fallon,St. Charles,MO,38.785,-90.7175,St Louis Lambert International Airport,KSTL,30.396807007375077,18.88770044634106
Alafaya,Orange,FL,28.5278,-81.1865,Orlando International Airport,KMCO,16.21948002698147,10.078317767741508
Newton,Middlesex,MA,42.3316,-71.2085,General Edward Lawrence Logan International Airport,KBOS,17.09815405215007,10.624300501169351
Muncie,Delaware,IN,40.1989,-85.395,Fort Wayne International Airport,KFWA,88.31581554631792,54.876904284994225
Citrus Heights,Sacramento,CA,38.6948,-121.288,Sacramento International Airport,KSMF,26.296520769648957,16.339900666461695
State College,Centre,PA,40.7909,-77.8568,Pittsburgh International Airport,KPIT,203.22273315411525,126.27675356725238
Decatur,Macon,IL,39.8556,-88.9337,General Wayne A. Downing Peoria International Airport,KPIA,110.62800116090482,68.74105383495282
Jackson,Jackson,MI,42.2431,-84.4037,MBS International Airport,KMBS,145.8297230577006,90.61439001203108
Fort Myers,Lee,FL,26.6195,-81.8303,Southwest Florida International Airport,KRSW,11.898171810205605,7.39318129551363
Goodyear,Maricopa,AZ,33.2613,-112.3622,Phoenix Sky Harbor International Airport,KPHX,37.791173089924825,23.482346572294297
Dalton,Whitfield,GA,34.769,-84.9712,Hartsfield Jackson Atlanta International Airport,KATL,135.45015425523118,84.16482488975811
Bryan,Brazos,TX,30.6657,-96.3668,George Bush Intercontinental Houston Airport,KIAH,124.19785360083574,77.17296932937563
Waukegan,Lake,IL,42.3697,-87.8716,Chicago O'Hare International Airport,KORD,43.57437895415071,27.07586413999537
Hawthorne,Los Angeles,CA,33.9146,-118.3476,Los Angeles International Airport,KLAX,6.3778164789670475,3.962991478915529
Anderson,Madison,IN,40.0891,-85.6893,Indianapolis International Airport,KIND,66.13131972259569,41.092097493612954
Redwood City,San Mateo,CA,37.5026,-122.2252,San Francisco International Airport,KSFO,18.489772679925917,11.489012237852783
Hoover,Jefferson,AL,33.3754,-86.8064,Birmingham-Shuttlesworth International Airport,KBHM,21.418732175395323,13.308983314304003
Town 'n' Country,Hillsborough,FL,28.0108,-82.576,Tampa International Airport,KTPA,5.75014236980174,3.5729728644945506
Lake Forest,Orange,CA,33.6606,-117.6712,Ontario International Airport,KONT,44.44181624985875,27.614864693354235
Napa,Napa,CA,38.2976,-122.3011,Metropolitan Oakland International Airport,KOAK,64.46505330060135,40.05672752745863
Whittier,Los Angeles,CA,33.9678,-118.0188,Los Angeles International Airport,KLAX,36.00706171701851,22.373751147577853
Clifton,Passaic,NJ,40.8631,-74.1575,Newark Liberty International Airport,KEWR,18.993197500871656,11.801825922953622
Largo,Pinellas,FL,27.9088,-82.7711,Tampa International Airport,KTPA,24.517806682070823,15.234658959406365
Bloomington,Hennepin,MN,44.8306,-93.3151,Minneapolis-St Paul International/Wold-Chamberlain Airport,KMSP,9.313907657484979,5.7873939778206305
Johns Creek,Fulton,GA,34.0333,-84.2027,Hartsfield Jackson Atlanta International Airport,KATL,48.767080645475986,30.302459421176188
Newport Beach,Orange,CA,33.6151,-117.8669,Ontario International Airport,KONT,54.83339097395647,34.0718899495565
Mission,Hidalgo,TX,26.2041,-98.3251,Corpus Christi International Airport,KCRP,192.34694031602996,119.51884912049992
Milpitas,Santa Clara,CA,37.4339,-121.8921,Norman Y. Mineta San Jose International Airport,KSJC,8.572389663485259,5.326636052067432
Troy,Oakland,MI,42.5818,-83.1457,MBS International Airport,KMBS,130.15916997399756,80.87715963774684
Madera,Madera,CA,36.9631,-120.0782,Norman Y. Mineta San Jose International Airport,KSJC,169.91267482067335,105.57884264853158
Joplin,Jasper,MO,37.0758,-94.5018,Tulsa International Airport,KTUL,157.53657257420383,97.88868914432013
Chino Hills,San Bernardino,CA,33.9508,-117.7253,Ontario International Airport,KONT,16.37464910655455,10.174735364918728
Alhambra,Los Angeles,CA,34.084,-118.1355,Los Angeles International Airport,KLAX,29.637487977608878,18.415881469632403
Franklin,Williamson,TN,35.9216,-86.8525,Nashville International Airport,KBNA,27.47243167128856,17.07057783450658
Melbourne,Brevard,FL,28.1085,-80.6627,Orlando International Airport,KMCO,72.65916341192536,45.148311560264155
Port Huron,St. Clair,MI,42.9822,-82.4387,MBS International Airport,KMBS,146.30894119483233,90.9121623609624
Springfield,Clark,OH,39.9297,-83.7957,James M Cox Dayton International Airport,KDAY,36.26237590756836,22.53239603253684
Mountain View,Santa Clara,CA,37.4,-122.0796,Norman Y. Mineta San Jose International Airport,KSJC,13.941272043388638,8.66270493912685
Zephyrhills,Pasco,FL,28.2408,-82.1796,Tampa International Airport,KTPA,45.53092566554845,28.29160591791264
St. Augustine,St. Johns,FL,29.8977,-81.31,Jacksonville International Airport,KJAX,75.61040969397217,46.982131004035125
Flagstaff,Coconino,AZ,35.1872,-111.6195,Phoenix Sky Harbor International Airport,KPHX,198.21904608973878,123.1676065316363
Buena Park,Orange,CA,33.8572,-118.0046,Los Angeles International Airport,KLAX,38.420101331425585,23.873144468429512
Pleasanton,Alameda,CA,37.6663,-121.8805,Metropolitan Oakland International Airport,KOAK,30.577615783288234,19.00004981240075
Westland,Wayne,MI,42.3192,-83.3805,MBS International Airport,KMBS,146.4688680151671,91.011536281226
Auburn,King,WA,47.3039,-122.2108,Seattle Tacoma International Airport,KSEA,17.748150937267344,11.028189845670934
Cranston,Providence,RI,41.7658,-71.4857,General Edward Lawrence Logan International Airport,KBOS,77.47371487871936,48.139935182647704
Somerville,Middlesex,MA,42.3908,-71.1013,General Edward Lawrence Logan International Airport,KBOS,8.425650230637004,5.235456394591192
Folsom,Sacramento,CA,38.6668,-121.1422,Sacramento International Airport,KSMF,39.08701575209496,24.28754588229815
Springdale,Washington,AR,36.1899,-94.1574,Tulsa International Airport,KTUL,155.30816044337587,96.50401802449299
Deerfield Beach,Broward,FL,26.305,-80.1277,Fort Lauderdale Hollywood International Airport,KFLL,25.96198959590109,16.132032629592576
Warwick,Kent,RI,41.7062,-71.4334,General Edward Lawrence Logan International Airport,KBOS,81.27426981218794,50.50149056232299
Cicero,Cook,IL,41.8445,-87.7593,Chicago Midway International Airport,KMDW,6.530087866429068,4.0576085336684695
Farmington Hills,Oakland,MI,42.486,-83.3771,MBS International Airport,KMBS,129.66788224483454,80.57188759193154
Newark,Licking,OH,40.0705,-82.4251,John Glenn Columbus International Airport,KCMH,40.551498515788545,25.197533294553747
Williamsburg,Williamsburg,VA,37.2692,-76.7076,Newport News Williamsburg International Airport,KPHF,24.37951247244044,15.148726920415283
Brooklyn Park,Hennepin,MN,45.1112,-93.3505,Minneapolis-St Paul International/Wold-Chamberlain Airport,KMSP,27.42152461110285,17.038945653430513
Hattiesburg,Forrest,MS,31.3074,-89.317,Gulfport Biloxi International Airport,KGPT,102.82389699465732,63.89180826424661
Alexandria,Rapides,LA,31.2923,-92.4702,Jackson-Medgar Wiley Evers International Airport,KJAN,253.03705863061072,157.22994076577294
Lawrence,Essex,MA,42.7003,-71.1626,General Edward Lawrence Logan International Airport,KBOS,39.524901532706906,24.55963549525993
Florence,Lauderdale,AL,34.8303,-87.6654,Huntsville International Carl T Jones Field,KHSV,84.14192909680413,52.283371453196104
Valdosta,Lowndes,GA,30.8502,-83.2788,Jacksonville International Airport,KJAX,157.21853635626277,97.69107059793463
Plymouth,Hennepin,MN,45.0225,-93.4618,Minneapolis-St Paul International/Wold-Chamberlain Airport,KMSP,24.510309660458397,15.230000526090627
Silver Spring,Montgomery,MD,39.0028,-77.0207,Baltimore/Washington International Thurgood Marshall Airport,KBWI,35.96358410092721,22.34673540909406
Buckeye,Maricopa,AZ,33.4314,-112.6429,Phoenix Sky Harbor International Airport,KPHX,58.545627755176675,36.378566972987436
Georgetown,Williamson,TX,30.6668,-97.6953,Austin Bergstrom International Airport,KAUS,52.5738861853985,32.66789874768449
Cheyenne,Laramie,WY,41.1351,-104.79,Denver International Airport,KDEN,141.94120208931375,88.19817507167939
Cedar Park,Williamson,TX,30.5106,-97.8196,Austin Bergstrom International Airport,KAUS,37.97065942425856,23.59387421124285
Kokomo,Howard,IN,40.464,-86.1277,Indianapolis International Airport,KIND,84.23163823168575,52.33911412598845
Tustin,Orange,CA,33.7309,-117.8106,Ontario International Airport,KONT,41.000797275712245,25.476714604166048
Lakewood,Los Angeles,CA,33.8471,-118.1221,Los Angeles International Airport,KLAX,28.440416612352276,17.67205579891727
Perris,Riverside,CA,33.7899,-117.2233,Ontario International Airport,KONT,45.716478780593086,28.406903279671663
St. Joseph,Buchanan,MO,39.7599,-94.821,Kansas City International Airport,KMCI,52.219724025478754,32.44783258138057
Flower Mound,Denton,TX,33.0344,-97.1146,Dallas Fort Worth International Airport,KDFW,16.886848843882852,10.4930015303421
Pharr,Hidalgo,TX,26.1685,-98.1904,Corpus Christi International Airport,KCRP,190.76813934856293,118.53782766878376
Atascocita,Harris,TX,29.9777,-95.1953,George Bush Intercontinental Houston Airport,KIAH,14.09151184315855,8.75605962379764
Alton,Madison,IL,38.9034,-90.1523,St Louis Lambert International Airport,KSTL,25.525961517338185,15.86109733918225
Loveland,Larimer,CO,40.4166,-105.0623,Denver International Airport,KDEN,70.0165930998932,43.506294474392355
Boynton Beach,Palm Beach,FL,26.5281,-80.0811,Palm Beach International Airport,KPBI,17.30656843977783,10.753803199306878
New Rochelle,Westchester,NY,40.9305,-73.7836,John F Kennedy International Airport,KJFK,32.32672668799671,20.086896954192543
Anderson,Anderson,SC,34.5211,-82.6479,Greenville Spartanburg International Airport,KGSP,57.20803616160327,35.547426079378816
Lebanon,Lebanon,PA,40.3412,-76.4227,Philadelphia International Airport,KPHL,113.23220164302704,70.35922901356969
Parma,Cuyahoga,OH,41.3843,-81.7286,Cleveland Hopkins International Airport,KCLE,10.558620377578489,6.560822614360399
Layton,Davis,UT,41.0769,-111.9621,Salt Lake City International Airport,KSLC,32.107710015918826,19.9508063018435
Elizabethtown,Hardin,KY,37.703,-85.877,Louisville Muhammad Ali International Airport,KSDF,53.856061142757085,33.46460533954834
Texarkana,Bowie,TX,33.4487,-94.0815,Dallas Fort Worth International Airport,KDFW,281.91948354456525,175.17664779346677
Alameda,Alameda,CA,37.767,-122.2672,Metropolitan Oakland International Airport,KOAK,6.505869787808463,4.04256011709429
The Villages,Sumter,FL,28.9021,-81.9888,Orlando Sanford International Airport,KSFB,74.47694254655546,46.27782716248422
Kankakee,Kankakee,IL,41.1019,-87.8643,Chicago Midway International Airport,KMDW,76.63809236427875,47.62070341810272
Watsonville,Santa Cruz,CA,36.9206,-121.7706,Norman Y. Mineta San Jose International Airport,KSJC,51.114175227151314,31.760876397905285
Porterville,Tulare,CA,36.0644,-119.0338,Los Angeles International Airport,KLAX,242.73015446929494,150.82552735877115
Baytown,Harris,TX,29.7586,-94.9669,George Bush Intercontinental Houston Airport,KIAH,43.981142789069104,27.328615472215215
Upland,San Bernardino,CA,34.1178,-117.6603,Ontario International Airport,KONT,8.777645049424686,5.454175837535077
Davis,Yolo,CA,38.5552,-121.7365,Sacramento International Airport,KSMF,20.069594141888004,12.470667795457919
Camarillo,Ventura,CA,34.223,-119.0322,Los Angeles International Airport,KLAX,65.40210913533404,40.63898703595348
South Jordan,Salt Lake,UT,40.557,-111.9782,Salt Lake City International Airport,KSLC,25.73041201338411,15.9881369892509
Battle Creek,Calhoun,MI,42.2986,-85.2296,Fort Wayne International Airport,KFWA,146.81660551461795,91.22761034854477
Bellflower,Los Angeles,CA,33.888,-118.1271,Los Angeles International Airport,KLAX,26.619289755558132,16.540460018558864
Jonesboro,Craighead,AR,35.8212,-90.6791,Memphis International Airport,KMEM,107.46676981459764,66.77675571982031
San Marcos,Hays,TX,29.8736,-97.9381,Austin Bergstrom International Airport,KAUS,44.04340779133312,27.36730515139001
San Ramon,Contra Costa,CA,37.7625,-121.9365,Metropolitan Oakland International Airport,KOAK,25.432346974331647,15.802927958256825
Lake Jackson,Brazoria,TX,29.0516,-95.4522,George Bush Intercontinental Houston Airport,KIAH,104.27536761739495,64.79371030686184
Bethlehem,Northampton,PA,40.6266,-75.3679,Philadelphia International Airport,KPHL,84.60627526803951,52.571902790832034
Wyoming,Kent,MI,42.8909,-85.7066,MBS International Airport,KMBS,149.93601686932044,93.16592272530988
Pine Hills,Orange,FL,28.5818,-81.4693,Orlando International Airport,KMCO,23.07662554345025,14.339150505884334
Oshkosh,Winnebago,WI,44.0228,-88.5619,Austin Straubel International Airport,KGRB,61.870199864038504,38.444360333757444
Hammond,Lake,IN,41.6169,-87.491,Chicago Midway International Airport,KMDW,28.714466174135737,17.842342303982132
Missouri City,Fort Bend,TX,29.563,-95.5365,George Bush Intercontinental Houston Airport,KIAH,50.49964326633696,31.379023935975717
Centreville,Fairfax,VA,38.8391,-77.4388,Washington Dulles International Airport,KIAD,11.811986378688239,7.339628150509165
Pasco,Franklin,WA,46.2506,-119.1304,Spokane International Airport,KGEG,194.60501940852788,120.92195443590026
Wheeling,Ohio,WV,40.0752,-80.6951,Pittsburgh International Airport,KPIT,60.66243206195651,37.69388820525639
Baldwin Park,Los Angeles,CA,34.0829,-117.9721,Ontario International Airport,KONT,34.312627003855916,21.320878216538354
Rancho Cordova,Sacramento,CA,38.574,-121.2523,Sacramento International Airport,KSMF,32.36868564256383,20.11296904014266
Caguas,Caguas,PR,18.2319,-66.0388,Miami International Airport,KMIA,1690.9254198357155,1050.6923572338223
Conway,Faulkner,AR,35.0754,-92.4694,Memphis International Airport,KMEM,226.90953135217035,140.9950477877357
Gary,Lake,IN,41.5906,-87.3472,Chicago Midway International Airport,KMDW,40.052481243439054,24.887458333213218
Altoona,Blair,PA,40.5082,-78.4007,Pittsburgh International Airport,KPIT,154.92767431427697,96.26759490187146
Lodi,San Joaquin,CA,38.1218,-121.2932,Sacramento International Airport,KSMF,68.8577142075779,42.78620050641973
Arlington Heights,Cook,IL,42.0955,-87.9825,Chicago O'Hare International Airport,KORD,14.496319985028618,9.007595744681215
Kendall,Miami-Dade,FL,25.6697,-80.3556,Miami International Airport,KMIA,15.197723414715893,9.443427635470112
Waldorf,Charles,MD,38.6085,-76.9195,Washington Dulles International Airport,KIAD,59.64255565035951,37.06016637553067
Bolingbrook,Will,IL,41.6903,-88.1019,Chicago Midway International Airport,KMDW,30.889653021651963,19.193940765647508
Rochester Hills,Oakland,MI,42.6645,-83.1563,MBS International Airport,KMBS,122.24344556124213,75.9585564605237
Winchester,Winchester,VA,39.1735,-78.1746,Washington Dulles International Airport,KIAD,67.08327364356738,41.68361424383183
Framingham,Middlesex,MA,42.3085,-71.4368,General Edward Lawrence Logan International Airport,KBOS,36.01390661330825,22.378004368999285
Hilton Head Island,Beaufort,SC,32.1896,-80.7499,Savannah Hilton Head International Airport,KSAV,43.122829301842785,26.795284190681215
Union City,Alameda,CA,37.603,-122.0187,Metropolitan Oakland International Airport,KOAK,22.139121832209266,13.756612699826071
Owensboro,Daviess,KY,37.7574,-87.1173,Louisville Muhammad Ali International Airport,KSDF,129.66231891589422,80.5684306995519
Jackson,Madison,TN,35.6535,-88.8353,Memphis International Airport,KMEM,123.82908066182806,76.9438244457369
Cleveland,Bradley,TN,35.1817,-84.8707,Hartsfield Jackson Atlanta International Airport,KATL,176.52876214803425,109.68988877043861
Wausau,Marathon,WI,44.962,-89.6459,Austin Straubel International Airport,KGRB,131.00506025734316,81.40277149817763
Camden,Camden,NJ,39.9362,-75.1073,Philadelphia International Airport,KPHL,13.467561333814048,8.368354747065636
Dale City,Prince William,VA,38.6473,-77.3459,Washington Dulles International Airport,KIAD,34.392346069652476,21.370413348115243
Anniston,Calhoun,AL,33.6712,-85.8136,Birmingham-Shuttlesworth International Airport,KBHM,87.86229861908504,54.59510192769921
Evanston,Cook,IL,42.0463,-87.6942,Chicago O'Hare International Airport,KORD,18.95800005937528,11.779955246494088
Apple Valley,San Bernardino,CA,34.5328,-117.2104,Ontario International Airport,KONT,64.01865868212568,39.77935076770285
Mansfield,Richland,OH,40.7656,-82.5275,John Glenn Columbus International Airport,KCMH,90.7623468600185,56.39710838322593
Schaumburg,Cook,IL,42.0307,-88.0838,Chicago O'Hare International Airport,KORD,15.884527266124108,9.870187768784257
Pocatello,Bannock,ID,42.8724,-112.4646,Salt Lake City International Airport,KSLC,235.21049597606157,146.15302813724054
Woodbury,Washington,MN,44.9056,-92.923,Minneapolis-St Paul International/Wold-Chamberlain Airport,KMSP,23.68317649625269,14.716043799288329
Southfield,Oakland,MI,42.4765,-83.2605,MBS International Airport,KMBS,135.03458621025007,83.90660287496654
Maple Grove,Hennepin,MN,45.1089,-93.4626,Minneapolis-St Paul International/Wold-Chamberlain Airport,KMSP,31.544911608993917,19.60109958037448
Pittsburg,Contra Costa,CA,38.0182,-121.8964,Metropolitan Oakland International Airport,KOAK,43.60927444712688,27.097547194340567
New Britain,Hartford,CT,41.6758,-72.7862,Bradley International Airport,KBDL,30.47564293109842,18.936686818868143
Morgantown,Monongalia,WV,39.638,-79.9468,Pittsburgh International Airport,KPIT,97.97822176376202,60.88084523121493
Mansfield,Tarrant,TX,32.569,-97.1211,Fort Worth Meacham International Airport,KFTW,35.88291005214522,22.29660687859354
Hammond,Tangipahoa,LA,30.5061,-90.4563,Louis Armstrong New Orleans International Airport,KMSY,60.10737560078515,37.34899210591059
Dothan,Houston,AL,31.2335,-85.4069,Hartsfield Jackson Atlanta International Airport,KATL,282.5667521651536,175.5788418729641
Harrisonburg,Harrisonburg,VA,38.4361,-78.8735,Washington Dulles International Airport,KIAD,135.40743492795116,84.13828033010293
Wenatchee,Chelan,WA,47.4356,-120.3283,Boeing Field King County International Airport,KBFI,148.6845642253357,92.38830609417391
Waukesha,Waukesha,WI,43.0087,-88.2464,General Mitchell International Airport,KMKE,29.26717040026652,18.18577679221809
Ellicott City,Howard,MD,39.2773,-76.8344,Baltimore/Washington International Thurgood Marshall Airport,KBWI,18.25095964886928,11.340620698169483
Pawtucket,Providence,RI,41.8744,-71.3743,General Edward Lawrence Logan International Airport,KBOS,62.40354811748198,38.77576757801752
Redmond,King,WA,47.6762,-122.1169,Boeing Field King County International Airport,KBFI,21.374816294418377,13.2816952506423
Lauderhill,Broward,FL,26.1605,-80.2242,Fort Lauderdale Hollywood International Airport,KFLL,12.103411177026965,7.520711127162658
Sumter,Sumter,SC,33.9392,-80.393,Charleston Air Force Base-International Airport,KCHS,120.24538083360508,74.7170165830342
Redlands,San Bernardino,CA,34.0511,-117.1712,Ontario International Airport,KONT,39.59960796280686,24.606055919378854
Daphne,Baldwin,AL,30.6286,-87.8866,Gulfport Biloxi International Airport,KGPT,116.00804716449872,72.08405947626117
Mount Vernon,Skagit,WA,48.4202,-122.3115,Boeing Field King County International Airport,KBFI,98.98853952111088,61.508627588480095
Weston,Broward,FL,26.1006,-80.4054,Fort Lauderdale Hollywood International Airport,KFLL,25.427710627096253,15.800047065611551
St. Charles,St. Charles,MO,38.7954,-90.5157,St Louis Lambert International Airport,KSTL,13.656753062913582,8.485913038806288
Janesville,Rock,WI,42.6855,-89.0136,Chicago Rockford International Airport,KRFD,54.92675984665458,34.129906678027574
Sherman,Grayson,TX,33.6274,-96.6218,Dallas Fort Worth International Airport,KDFW,89.98466254529515,55.913877747365106
North Richland Hills,Tarrant,TX,32.8605,-97.218,Fort Worth Meacham International Airport,KFTW,14.228999398134928,8.841490430818379
Broomfield,Broomfield,CO,39.9541,-105.0527,Denver International Airport,KDEN,33.97757358808643,21.11268567351757
El Paso de Robles,San Luis Obispo,CA,35.6394,-120.656,Norman Y. Mineta San Jose International Airport,KSJC,222.84355627670408,138.46856797592315
Bristol,Sullivan,TN,36.5572,-82.2154,Greenville Spartanburg International Airport,KGSP,184.75109234016648,114.79900794872006
Wilmington,New Castle,DE,39.7415,-75.5413,Philadelphia International Airport,KPHL,29.459101649188522,18.30503734267825
Walnut Creek,Contra Costa,CA,37.9024,-122.0398,Metropolitan Oakland International Airport,KOAK,25.669196175026833,15.950099230311833
Lynwood,Los Angeles,CA,33.924,-118.2017,Los Angeles International Airport,KLAX,19.143259498487698,11.895070126486699
Glen Burnie,Anne Arundel,MD,39.1559,-76.6072,Baltimore/Washington International Thurgood Marshall Airport,KBWI,5.696141696372808,3.5394184012452077
Lehi,Utah,UT,40.4136,-111.8726,Salt Lake City International Airport,KSLC,42.615120799156784,26.479808749117012
Passaic,Passaic,NJ,40.8574,-74.1282,Newark Liberty International Airport,KEWR,18.650421907085835,11.588835040912214
Guaynabo,Guaynabo,PR,18.3839,-66.1134,Miami International Airport,KMIA,1675.264700473693,1040.9612372509791
Casas Adobes,Pima,AZ,32.3423,-111.0114,Tucson International Airport / Morris Air National Guard Base,KTUS,26.19894122649791,16.27926754863848
Homestead,Miami-Dade,FL,25.4665,-80.4472,Miami International Airport,KMIA,39.574626448399584,24.590533125793787
West Bend,Washington,WI,43.4184,-88.1824,General Mitchell International Airport,KMKE,57.29060786718131,35.59873375915989
Delray Beach,Palm Beach,FL,26.455,-80.0905,Palm Beach International Airport,KPBI,25.379876827443283,15.770324520120626
Sheboygan,Sheboygan,WI,43.7403,-87.7316,Austin Straubel International Airport,KGRB,88.70394247787812,55.1180751822101
Lake Elsinore,Riverside,CA,33.6847,-117.3344,Ontario International Airport,KONT,48.066873108937344,29.86737062394813
Daytona Beach,Volusia,FL,29.1994,-81.0982,Daytona Beach International Airport,KDAB,4.456067749277099,2.7688721646496104
Los Lunas,Valencia,NM,34.8115,-106.7803,Albuquerque International Sunport,KABQ,29.842683941153748,18.543384331735435
Lima,Allen,OH,40.741,-84.1121,James M Cox Dayton International Airport,KDAY,93.69071974596905,58.216714957416485
Decatur,Morgan,AL,34.573,-86.9906,Huntsville International Carl T Jones Field,KHSV,20.975305978824284,13.03345104642922
Rocklin,Placer,CA,38.8075,-121.2488,Sacramento International Airport,KSMF,32.186665951493985,19.99986724627896
Rogers,Benton,AR,36.3172,-94.1526,Tulsa International Airport,KTUL,156.16895186967997,97.0388890260053
Castle Rock,Douglas,CO,39.3763,-104.8535,Denver International Airport,KDEN,56.14457815347774,34.886623900720245
Hanover,York,PA,39.8117,-76.9835,Baltimore/Washington International Thurgood Marshall Airport,KBWI,75.74679693723313,47.06687810904487
Bossier City,Bossier,LA,32.5227,-93.6666,Dallas Fort Worth International Airport,KDFW,318.15060195450405,197.68962131719255
Dubuque,Dubuque,IA,42.5008,-90.7067,Quad City International Airport,KMLI,118.1633851373225,73.42332441884025
Rockville,Montgomery,MD,39.0834,-77.1552,Washington Dulles International Airport,KIAD,30.216911602439684,18.77591862270187
Victoria,Victoria,TX,28.8285,-96.985,Corpus Christi International Airport,KCRP,128.05017884564566,79.56669328953346
Saratoga Springs,Saratoga,NY,43.0674,-73.7775,Bradley International Airport,KBDL,154.2487911601873,95.84575646175497
Gaithersburg,Montgomery,MD,39.1346,-77.2132,Washington Dulles International Airport,KIAD,29.76306795550192,18.493913251191774
Union City,Hudson,NJ,40.7674,-74.0323,Newark Liberty International Airport,KEWR,14.193800351494557,8.819618756968595
Ames,Story,IA,42.0259,-93.6215,Des Moines International Airport,KDSM,54.805490783151356,34.0545535745157
West Des Moines,Polk,IA,41.5522,-93.7805,Des Moines International Airport,KDSM,9.97786459190876,6.199957694911857
South San Francisco,San Mateo,CA,37.6536,-122.4197,San Francisco International Airport,KSFO,5.504122201272711,3.420103017151466
Yorba Linda,Orange,CA,33.889,-117.7714,Ontario International Airport,KONT,24.325803800516322,15.115353898491389
Casper,Natrona,WY,42.842,-106.3207,Denver International Airport,KDEN,358.7807497564907,222.93602501309033
Palatine,Cook,IL,42.1181,-88.043,Chicago O'Hare International Airport,KORD,19.25699689982416,11.965743272040017
Corvallis,Benton,OR,44.5697,-123.278,Portland International Airport,KPDX,125.2559874454105,77.83046322613966
Ankeny,Polk,IA,41.7285,-93.6033,Des Moines International Airport,KDSM,22.19114364672165,13.788937557135807
Mount Vernon,Westchester,NY,40.9136,-73.8291,John F Kennedy International Airport,KJFK,30.73714689668439,19.099177851769056
Rowlett,Dallas,TX,32.9157,-96.5488,Dallas Fort Worth International Airport,KDFW,45.7177482448184,28.407692088180706
Lakeville,Dakota,MN,44.6774,-93.252,Minneapolis-St Paul International/Wold-Chamberlain Airport,KMSP,22.875030681480744,14.213885264588509
Alpharetta,Fulton,GA,34.0704,-84.2739,Hartsfield Jackson Atlanta International Airport,KATL,50.283607324706416,31.244785423681616
Poinciana,Polk,FL,28.1217,-81.482,Orlando International Airport,KMCO,38.17932072746555,23.723530335610143
Longview,Cowlitz,WA,46.1461,-122.9629,Portland International Airport,KPDX,68.11586455759344,42.32523649918931
DeKalb,DeKalb,IL,41.9313,-88.7482,Chicago Rockford International Airport,KRFD,41.13921810780026,25.562725322705578
Petaluma,Sonoma,CA,38.2423,-122.6267,Metropolitan Oakland International Airport,KOAK,67.9743813489481,42.2373229080535
Redondo Beach,Los Angeles,CA,33.8574,-118.3766,Los Angeles International Airport,KLAX,9.896550695196249,6.149431581334928
Tamarac,Broward,FL,26.2056,-80.2542,Fort Lauderdale Hollywood International Airport,KFLL,17.926795362035037,11.139194346262146
Laguna Niguel,Orange,CA,33.5275,-117.705,Ontario International Airport,KONT,59.54728065304861,37.0009652361216
Eagan,Dakota,MN,44.8169,-93.1638,Minneapolis-St Paul International/Wold-Chamberlain Airport,KMSP,8.561997519472891,5.320178673071894
Kenner,Jefferson,LA,30.0109,-90.2549,Louis Armstrong New Orleans International Airport,KMSY,1.96866291474412,1.2232704377300516
Bay City,Bay,MI,43.5903,-83.8886,MBS International Airport,KMBS,16.660722193925555,10.352492942506155
North Little Rock,Pulaski,AR,34.7808,-92.2371,Memphis International Airport,KMEM,208.15005659035745,129.3384504436183
Sammamish,King,WA,47.6017,-122.0416,Boeing Field King County International Airport,KBFI,21.10159889262568,13.111925825829491
Shawnee,Johnson,KS,39.0158,-94.8076,Kansas City International Airport,KMCI,32.35958513539649,20.107314247083483
Jupiter,Palm Beach,FL,26.9199,-80.1128,Palm Beach International Airport,KPBI,26.375113511595522,16.388735932836322
Doral,Miami-Dade,FL,25.8151,-80.3565,Miami International Airport,KMIA,7.031859904225147,4.369395226920265
Carbondale,Jackson,IL,37.7221,-89.2238,St Louis Lambert International Airport,KSTL,151.82888933821954,94.34209916275668
Blaine,Anoka,MN,45.1696,-93.2077,Minneapolis-St Paul International/Wold-Chamberlain Airport,KMSP,31.99890984664273,19.88320101010021
Weirton,Hancock,WV,40.406,-80.5671,Pittsburgh International Airport,KPIT,29.83446306197568,18.538276114175503
Tulare,Tulare,CA,36.1996,-119.34,Norman Y. Mineta San Jose International Airport,KSJC,264.348619202297,164.25861873207435
Wellington,Palm Beach,FL,26.6461,-80.2699,Palm Beach International Airport,KPBI,17.80496508168936,11.063492518767417
Pflugerville,Travis,TX,30.452,-97.6022,Austin Bergstrom International Airport,KAUS,29.360803425362448,18.243957657381575
Palo Alto,Santa Clara,CA,37.3913,-122.1468,Norman Y. Mineta San Jose International Airport,KSJC,19.508027069334965,12.12172618970515
Schenectady,Schenectady,NY,42.8025,-73.9276,Bradley International Airport,KBDL,140.2542718670034,87.14996521512614
Great Falls,Cascade,MT,47.5022,-111.2995,Billings Logan International Airport,KBIL,282.3922137870851,175.47038875153763
Michigan City,LaPorte,IN,41.7099,-86.8705,Chicago Midway International Airport,KMDW,73.65055370728581,45.764332937760635
Bayonne,Hudson,NJ,40.6661,-74.1141,Newark Liberty International Airport,KEWR,5.460606843319538,3.3930638269616735
Eden Prairie,Hennepin,MN,44.8488,-93.4595,Minneapolis-St Paul International/Wold-Chamberlain Airport,KMSP,19.0935675661645,11.864192990868714
Port Orange,Volusia,FL,29.1084,-81.0137,Daytona Beach International Airport,KDAB,9.044318128920034,5.619878808948797
Dublin,Alameda,CA,37.7161,-121.8963,Metropolitan Oakland International Airport,KOAK,28.565879104056474,17.750014577942498
Carmichael,Sacramento,CA,38.6337,-121.323,Sacramento International Airport,KSMF,24.259221379320675,15.073981499534144
Grand Forks,Grand Forks,ND,47.9218,-97.0886,Duluth International Airport,KDLH,387.53009383351974,240.80003944144676
Noblesville,Hamilton,IN,40.0354,-86.0042,Indianapolis International Airport,KIND,43.178521864842914,26.82988994538368
San Clemente,Orange,CA,33.4498,-117.6103,Ontario International Airport,KONT,67.41192942388989,41.88783148043777
Brentwood,Contra Costa,CA,37.9355,-121.7191,Metropolitan Oakland International Airport,KOAK,50.103977812220556,31.13316881795286
East Orange,Essex,NJ,40.7651,-74.2117,Newark Liberty International Airport,KEWR,8.848484412779786,5.498193377750272
Florence-Graham,Los Angeles,CA,33.9682,-118.2447,Los Angeles International Airport,KLAX,15.330116193013822,9.525692694992431
Eastvale,Riverside,CA,33.9617,-117.5802,Ontario International Airport,KONT,10.659474360040656,6.6234903744676945
Chapel Hill,Orange,NC,35.927,-79.0391,Raleigh Durham International Airport,KRDU,23.317944286806245,14.489099023025942
Rocky Mount,Nash,NC,35.9676,-77.8048,Raleigh Durham International Airport,KRDU,89.05267016223843,55.33476452191429
Haverhill,Essex,MA,42.7838,-71.0871,General Edward Lawrence Logan International Airport,KBOS,47.125943717172554,29.282704198671972
Beloit,Rock,WI,42.523,-89.0184,Chicago Rockford International Airport,KRFD,36.998397066620534,22.989738383362482
Glens Falls,Warren,NY,43.3109,-73.6459,Bradley International Airport,KBDL,171.68995446506358,106.68319303390192
Castro Valley,Alameda,CA,37.7091,-122.0631,Metropolitan Oakland International Airport,KOAK,13.95537836222972,8.671470199392715
Fairbanks,Fairbanks North Star,AK,64.8353,-147.6534,Fairbanks International Airport,PAFA,9.842840579630641,6.1160576623737875
Springfield,Lane,OR,44.0538,-122.981,Portland International Airport,KPDX,173.325331228231,107.69936905568336
Johnstown,Cambria,PA,40.3258,-78.9193,Pittsburgh International Airport,KPIT,112.73540383472599,70.05053316326828
Coon Rapids,Anoka,MN,45.1755,-93.3095,Minneapolis-St Paul International/Wold-Chamberlain Airport,KMSP,33.35553284317463,20.72616746940283
Elmira,Chemung,NY,42.0938,-76.8097,Syracuse Hancock International Airport,KSYR,126.93483696137638,78.8736519644948
Brentwood,Suffolk,NY,40.7839,-73.2522,John F Kennedy International Airport,KJFK,47.19639366671649,29.326479768360024
Mankato,Blue Earth,MN,44.1712,-93.9773,Minneapolis-St Paul International/Wold-Chamberlain Airport,KMSP,99.164863260446,61.61819008197924
Albany,Linn,OR,44.6274,-123.0966,Portland International Airport,KPDX,113.82798183496786,70.72942966637218
North Miami,Miami-Dade,FL,25.9007,-80.1686,Miami International Airport,KMIA,17.086486416982698,10.61705056870424
Dundalk,Baltimore,MD,39.2703,-76.4942,Baltimore/Washington International Thurgood Marshall Airport,KBWI,18.337533744639618,11.394415347947213
Encinitas,San Diego,CA,33.049,-117.2613,San Diego International Airport,KSAN,35.69709425531274,22.181146293936784
Skokie,Cook,IL,42.0359,-87.74,Chicago O'Hare International Airport,KORD,15.03349116165412,9.341378443306414
Leander,Williamson,TX,30.5728,-97.8618,Austin Bergstrom International Airport,KAUS,45.916419072878035,28.531140419017113
Mayagüez,Mayagüez,PR,18.2003,-67.1397,Miami International Airport,KMIA,1595.6359918367111,991.4822510107674
Parkersburg,Wood,WV,39.2624,-81.542,Rickenbacker International Airport,KLCK,133.72034772616075,83.08997293102178
Waltham,Middlesex,MA,42.3889,-71.2423,General Edward Lawrence Logan International Airport,KBOS,19.667046091159403,12.220536030119028
Bethesda,Montgomery,MD,38.9866,-77.1188,Washington Dulles International Airport,KIAD,29.509887462880467,18.336594184674993
San Luis Obispo,San Luis Obispo,CA,35.2669,-120.6691,Los Angeles International Airport,KLAX,253.98217326290253,157.81720777897766
Sebring,Highlands,FL,27.477,-81.453,Orlando International Airport,KMCO,106.84248114976103,66.38884072300439
Council Bluffs,Pottawattamie,IA,41.2369,-95.8517,Des Moines International Airport,KDSM,185.54811720111317,115.29425624299634
Hamilton,Butler,OH,39.3938,-84.5653,Cincinnati Northern Kentucky International Airport,KCVG,39.36525845578843,24.460437884983403
Moore,Cleveland,OK,35.3293,-97.4758,Tulsa International Airport,KTUL,172.7988541742032,107.37223137684965
Pico Rivera,Los Angeles,CA,33.9902,-118.0888,Los Angeles International Airport,KLAX,29.91079551072996,18.58570689945689
Palm Harbor,Pinellas,FL,28.0847,-82.7481,Tampa International Airport,KTPA,24.337950465312183,15.122901486171589
Casa Grande,Pinal,AZ,32.9068,-111.7624,Phoenix Sky Harbor International Airport,KPHX,63.08846289434119,39.20135389481226
Monessen,Westmoreland,PA,40.1519,-79.8828,Pittsburgh International Airport,KPIT,48.03031820710734,29.84465646073214
Montebello,Los Angeles,CA,34.0155,-118.1108,Los Angeles International Airport,KLAX,28.580730349694935,17.75924271426636
Rome,Floyd,GA,34.2661,-85.1862,Hartsfield Jackson Atlanta International Airport,KATL,98.93164470801769,61.4732747901946
Millcreek,Salt Lake,UT,40.6892,-111.8291,Salt Lake City International Airport,KSLC,16.70455321164196,10.37972827458182
Sanford,Seminole,FL,28.7893,-81.276,Orlando Sanford International Airport,KSFB,3.9709673770833387,2.4674447642591266
National City,San Diego,CA,32.6654,-117.0983,San Diego International Airport,KSAN,11.451678785025528,7.115743388665854
Burnsville,Dakota,MN,44.7648,-93.2795,Minneapolis-St Paul International/Wold-Chamberlain Airport,KMSP,13.803709945835335,8.577227813495638
Coconut Creek,Broward,FL,26.2803,-80.1842,Fort Lauderdale Hollywood International Airport,KFLL,23.308243485629042,14.4830712245575
Port Charlotte,Charlotte,FL,26.9918,-82.114,Southwest Florida International Airport,KRSW,61.93080830786465,38.48202067522783
Morristown,Hamblen,TN,36.2046,-83.3006,Greenville Spartanburg International Airport,KGSP,175.38060666238542,108.97645801853443
Lakewood,Pierce,WA,47.1628,-122.5299,Seattle Tacoma International Airport,KSEA,35.91926434811321,22.319196391104324
Gadsden,Etowah,AL,34.009,-86.0156,Birmingham-Shuttlesworth International Airport,KBHM,84.32650841158836,52.39806372351876
Taylor,Wayne,MI,42.226,-83.2688,Cleveland Hopkins International Airport,KCLE,148.40859023890818,92.21682380705866
Novi,Oakland,MI,42.4786,-83.4893,MBS International Airport,KMBS,126.67833154677287,78.71426688721611
Marietta,Cobb,GA,33.9533,-84.5422,Hartsfield Jackson Atlanta International Airport,KATL,36.749323959981794,22.83497152820264
Hot Springs,Garland,AR,34.4892,-93.0501,Memphis International Airport,KMEM,287.3884468867711,178.57490410816922
Woodland,Yolo,CA,38.6712,-121.75,Sacramento International Airport,KSMF,14.06084744784731,8.73700565168582
La Habra,Orange,CA,33.9278,-117.9513,Ontario International Airport,KONT,35.301801720323176,21.935522897119277
The Hammocks,Miami-Dade,FL,25.67,-80.4483,Miami International Airport,KMIA,20.909061819489672,12.99228883365048
Malden,Middlesex,MA,42.4305,-71.0576,General Edward Lawrence Logan International Airport,KBOS,8.526363084472637,5.298036461434464
Commerce City,Adams,CO,39.8642,-104.8434,Denver International Airport,KDEN,14.546786444522763,9.038954149176842
Reston,Fairfax,VA,38.9497,-77.3461,Washington Dulles International Airport,KIAD,9.50465266515125,5.905917432128231
South Whittier,Los Angeles,CA,33.9336,-118.0311,Los Angeles International Airport,KLAX,34.783601588525116,21.61352825938376
Bristol,Hartford,CT,41.6812,-72.9407,Bradley International Airport,KBDL,35.729290643237974,22.201152202137553
Columbus,Bartholomew,IN,39.2093,-85.9183,Indianapolis International Airport,KIND,65.06321384610769,40.42840726341255
West Allis,Milwaukee,WI,43.0068,-88.0296,General Mitchell International Airport,KMKE,12.68831816320595,7.884155483053077
Fountainebleau,Miami-Dade,FL,25.7723,-80.3458,Miami International Airport,KMIA,5.9952978390079,3.7253054125817457
Taylorsville,Salt Lake,UT,40.657,-111.9493,Salt Lake City International Airport,KSLC,14.80968076108788,9.20230910613409
Bangor,Penobscot,ME,44.8322,-68.7906,Bangor International Airport,KBGR,4.0440172652873265,2.5128358609523045
Monterey Park,Los Angeles,CA,34.0497,-118.1326,Los Angeles International Airport,KLAX,28.047592080444165,17.427965948136087
Greenwood,Johnson,IN,39.6019,-86.1073,Indianapolis International Airport,KIND,20.522952598365702,12.752371683589615
Bartlett,Shelby,TN,35.2337,-89.8195,Memphis International Airport,KMEM,25.62832858286705,15.924705285530397
Bradenton,Manatee,FL,27.49,-82.5739,Sarasota Bradenton International Airport,KSRQ,10.693762954504665,6.644796319556109
Pontiac,Oakland,MI,42.6493,-83.2878,MBS International Airport,KMBS,117.41851652979977,72.96048451834152
Staunton,Staunton,VA,38.1593,-79.0611,Washington Dulles International Airport,KIAD,164.647192353802,102.30702348951279
Meriden,New Haven,CT,41.5367,-72.7944,Bradley International Airport,KBDL,45.66455922889805,28.374641965531456
Gardena,Los Angeles,CA,33.8944,-118.3073,Los Angeles International Airport,KLAX,10.721108043573752,6.661787770365074
Apex,Wake,NC,35.7239,-78.8728,Raleigh Durham International Airport,KRDU,18.742445400958008,11.646015789727759
Royal Oak,Oakland,MI,42.5084,-83.1539,MBS International Airport,KMBS,136.52986413461394,84.83572551316203
Cupertino,Santa Clara,CA,37.3168,-122.0465,Norman Y. Mineta San Jose International Airport,KSJC,11.568766108536092,7.188498079380402
La Mesa,San Diego,CA,32.7703,-117.0204,San Diego International Airport,KSAN,16.377326537273248,10.176399043257323
Benton Harbor,Berrien,MI,42.1159,-86.4488,Chicago Midway International Airport,KMDW,113.87386056700967,70.75793738915549
St. Clair Shores,Macomb,MI,42.4921,-82.8957,Cleveland Hopkins International Airport,KCLE,148.02867900801178,91.9807579096231
